[
 {
  "id": 1,
  "source": "gsi_1003",
  "source_id": "0395",
  "name": "富士山",
  "name_kana": "ふじさん",
  "latitude": 35.360833,
  "longitude": 138.7275,
  "elevation_m": 3776,
  "prefecture": "山梨県/静岡県",
  "mountain_type": "",
  "priority": 100
 },
 {
  "id": 2,
  "source": "gsi_1003",
  "source_id": "0591",
  "name": "北岳",
  "name_kana": "きただけ",
  "latitude": 35.674444,
  "longitude": 138.238889,
  "elevation_m": 3193,
  "prefecture": "山梨県",
  "mountain_type": "",
  "priority": 100
 },
 {
  "id": 3,
  "source": "gsi_1003",
  "source_id": "0538",
  "name": "奥穂高岳",
  "name_kana": "おくほたかだけ",
  "latitude": 36.289167,
  "longitude": 137.648056,
  "elevation_m": 3190,
  "prefecture": "長野県/岐阜県",
  "mountain_type": "",
  "priority": 100
 },
 {
  "id": 4,
  "source": "gsi_1003",
  "source_id": "0592",
  "name": "間ノ岳",
  "name_kana": "あいのだけ",
  "latitude": 35.646111,
  "longitude": 138.228333,
  "elevation_m": 3190,
  "prefecture": "山梨県/静岡県",
  "mountain_type": "",
  "priority": 100
 },
 {
  "id": 5,
  "source": "gsi_1003",
  "source_id": "0532",
  "name": "槍ヶ岳",
  "name_kana": "やりがたけ",
  "latitude": 36.341944,
  "longitude": 137.6475,
  "elevation_m": 3180,
  "prefecture": "長野県",
  "mountain_type": "",
  "priority": 100
 },
 {
  "id": 6,
  "source": "gsi_1003",
  "source_id": "0613",
  "name": "東岳（悪沢岳）",
  "name_kana": "ひがしだけ（わるさわだけ）",
  "latitude": 35.500833,
  "longitude": 138.1825,
  "elevation_m": 3141,
  "prefecture": "静岡県",
  "mountain_type": "",
  "priority": 100
 },
 {
  "id": 7,
  "source": "gsi_1003",
  "source_id": "0616",
  "name": "赤石岳",
  "name_kana": "あかいしだけ",
  "latitude": 35.461111,
  "longitude": 138.157222,
  "elevation_m": 3121,
  "prefecture": "長野県/静岡県",
  "mountain_type": "",
  "priority": 100
 },
 {
  "id": 8,
  "source": "gsi_1003",
  "source_id": "0537",
  "name": "涸沢岳",
  "name_kana": "からさわだけ",
  "latitude": 36.295833,
  "longitude": 137.646944,
  "elevation_m": 3110,
  "prefecture": "長野県/岐阜県",
  "mountain_type": "",
  "priority": 100
 },
 {
  "id": 9,
  "source": "gsi_1003",
  "source_id": "0536",
  "name": "北穂高岳",
  "name_kana": "きたほたかだけ",
  "latitude": 36.3025,
  "longitude": 137.651944,
  "elevation_m": 3106,
  "prefecture": "長野県/岐阜県",
  "mountain_type": "",
  "priority": 100
 },
 {
  "id": 10,
  "source": "gsi_1003",
  "source_id": "0533",
  "name": "大喰岳",
  "name_kana": "おおばみだけ",
  "latitude": 36.335833,
  "longitude": 137.645833,
  "elevation_m": 3101,
  "prefecture": "長野県/岐阜県",
  "mountain_type": "",
  "priority": 100
 },
 {
  "id": 11,
  "source": "gsi_1003",
  "source_id": "0539",
  "name": "前穂高岳",
  "name_kana": "まえほたかだけ",
  "latitude": 36.281944,
  "longitude": 137.660556,
  "elevation_m": 3090,
  "prefecture": "長野県",
  "mountain_type": "",
  "priority": 100
 },
 {
  "id": 12,
  "source": "gsi_1003",
  "source_id": "0534",
  "name": "中岳",
  "name_kana": "なかだけ",
  "latitude": 36.329722,
  "longitude": 137.646667,
  "elevation_m": 3084,
  "prefecture": "長野県/岐阜県",
  "mountain_type": "",
  "priority": 100
 },
 {
  "id": 13,
  "source": "gsi_1003",
  "source_id": "0614",
  "name": "荒川岳",
  "name_kana": "あらかわだけ",
  "latitude": 35.496667,
  "longitude": 138.166944,
  "elevation_m": 3084,
  "prefecture": "静岡県",
  "mountain_type": "",
  "priority": 100
 },
 {
  "id": 14,
  "source": "gsi_1003",
  "source_id": "0615",
  "name": "荒川岳",
  "name_kana": "あらかわだけ",
  "latitude": 35.494167,
  "longitude": 138.164167,
  "elevation_m": 3068,
  "prefecture": "長野県/静岡県",
  "mountain_type": "",
  "priority": 100
 },
 {
  "id": 15,
  "source": "gsi_1003",
  "source_id": "0548",
  "name": "御嶽山",
  "name_kana": "おんたけさん",
  "latitude": 35.892778,
  "longitude": 137.480278,
  "elevation_m": 3067,
  "prefecture": "長野県",
  "mountain_type": "",
  "priority": 100
 },
 {
  "id": 16,
  "source": "gsi_1003",
  "source_id": "0593",
  "name": "農鳥岳",
  "name_kana": "のうとりだけ",
  "latitude": 35.624722,
  "longitude": 138.230278,
  "elevation_m": 3051,
  "prefecture": "山梨県/静岡県",
  "mountain_type": "",
  "priority": 100
 },
 {
  "id": 17,
  "source": "gsi_1003",
  "source_id": "0603",
  "name": "塩見岳",
  "name_kana": "しおみだけ",
  "latitude": 35.573889,
  "longitude": 138.183056,
  "elevation_m": 3047,
  "prefecture": "長野県/静岡県",
  "mountain_type": "",
  "priority": 100
 },
 {
  "id": 18,
  "source": "gsi_1003",
  "source_id": "0588",
  "name": "仙丈ヶ岳",
  "name_kana": "せんじょうがたけ",
  "latitude": 35.72,
  "longitude": 138.183611,
  "elevation_m": 3033,
  "prefecture": "山梨県/長野県",
  "mountain_type": "",
  "priority": 100
 },
 {
  "id": 19,
  "source": "gsi_1003",
  "source_id": "0535",
  "name": "南岳",
  "name_kana": "みなみだけ",
  "latitude": 36.318889,
  "longitude": 137.650833,
  "elevation_m": 3033,
  "prefecture": "長野県/岐阜県",
  "mountain_type": "",
  "priority": 100
 },
 {
  "id": 20,
  "source": "gsi_1003",
  "source_id": "0545",
  "name": "乗鞍岳",
  "name_kana": "のりくらだけ",
  "latitude": 36.106389,
  "longitude": 137.553611,
  "elevation_m": 3026,
  "prefecture": "岐阜県/長野県",
  "mountain_type": "",
  "priority": 100
 },
 {
  "id": 21,
  "source": "gsi_1003",
  "source_id": "0594",
  "name": "農鳥岳",
  "name_kana": "のうとりだけ",
  "latitude": 35.621111,
  "longitude": 138.236944,
  "elevation_m": 3026,
  "prefecture": "山梨県/静岡県",
  "mountain_type": "",
  "priority": 100
 },
 {
  "id": 22,
  "source": "gsi_1003",
  "source_id": "0501",
  "name": "立山",
  "name_kana": "たてやま",
  "latitude": 36.575833,
  "longitude": 137.619722,
  "elevation_m": 3015,
  "prefecture": "富山県",
  "mountain_type": "",
  "priority": 100
 },
 {
  "id": 23,
  "source": "gsi_1003",
  "source_id": "0622",
  "name": "聖岳",
  "name_kana": "ひじりだけ",
  "latitude": 35.422778,
  "longitude": 138.139722,
  "elevation_m": 3013,
  "prefecture": "長野県/静岡県",
  "mountain_type": "",
  "priority": 100
 },
 {
  "id": 24,
  "source": "gsi_1003",
  "source_id": "0495",
  "name": "剱岳",
  "name_kana": "つるぎだけ",
  "latitude": 36.623333,
  "longitude": 137.616944,
  "elevation_m": 2999,
  "prefecture": "富山県",
  "mountain_type": "",
  "priority": 100
 },
 {
  "id": 25,
  "source": "gsi_1003",
  "source_id": "0487",
  "name": "水晶岳（黒岳）",
  "name_kana": "すいしょうだけ（くろだけ）",
  "latitude": 36.426389,
  "longitude": 137.602778,
  "elevation_m": 2986,
  "prefecture": "富山県",
  "mountain_type": "",
  "priority": 100
 },
 {
  "id": 26,
  "source": "gsi_1003",
  "source_id": "0577",
  "name": "駒ヶ岳",
  "name_kana": "こまがたけ",
  "latitude": 35.758056,
  "longitude": 138.236667,
  "elevation_m": 2967,
  "prefecture": "山梨県/長野県",
  "mountain_type": "",
  "priority": 100
 },
 {
  "id": 27,
  "source": "gsi_1003",
  "source_id": "0557",
  "name": "駒ヶ岳",
  "name_kana": "こまがたけ",
  "latitude": 35.789444,
  "longitude": 137.804444,
  "elevation_m": 2956,
  "prefecture": "長野県",
  "mountain_type": "",
  "priority": 100
 },
 {
  "id": 28,
  "source": "gsi_1003",
  "source_id": "0464",
  "name": "白馬岳",
  "name_kana": "しろうまだけ",
  "latitude": 36.758611,
  "longitude": 137.758611,
  "elevation_m": 2932,
  "prefecture": "富山県/長野県",
  "mountain_type": "",
  "priority": 100
 },
 {
  "id": 29,
  "source": "gsi_1003",
  "source_id": "0558",
  "name": "駒ヶ岳",
  "name_kana": "こまがたけ",
  "latitude": 35.781389,
  "longitude": 137.809167,
  "elevation_m": 2931,
  "prefecture": "長野県",
  "mountain_type": "",
  "priority": 100
 },
 {
  "id": 30,
  "source": "gsi_1003",
  "source_id": "0509",
  "name": "薬師岳",
  "name_kana": "やくしだけ",
  "latitude": 36.468889,
  "longitude": 137.544722,
  "elevation_m": 2926,
  "prefecture": "富山県",
  "mountain_type": "",
  "priority": 100
 },
 {
  "id": 31,
  "source": "gsi_1003",
  "source_id": "0484",
  "name": "野口五郎岳",
  "name_kana": "のぐちごろうだけ",
  "latitude": 36.432778,
  "longitude": 137.637778,
  "elevation_m": 2924,
  "prefecture": "富山県/長野県",
  "mountain_type": "",
  "priority": 100
 },
 {
  "id": 32,
  "source": "gsi_1003",
  "source_id": "0489",
  "name": "鷲羽岳",
  "name_kana": "わしばだけ",
  "latitude": 36.403056,
  "longitude": 137.605278,
  "elevation_m": 2924,
  "prefecture": "富山県/長野県",
  "mountain_type": "",
  "priority": 100
 },
 {
  "id": 33,
  "source": "gsi_1003",
  "source_id": "0523",
  "name": "大天井岳",
  "name_kana": "だいてんじょうだけ",
  "latitude": 36.365,
  "longitude": 137.701111,
  "elevation_m": 2922,
  "prefecture": "長野県",
  "mountain_type": "",
  "priority": 100
 },
 {
  "id": 34,
  "source": "gsi_1003",
  "source_id": "0540",
  "name": "西穂高岳",
  "name_kana": "にしほたかだけ",
  "latitude": 36.278889,
  "longitude": 137.629167,
  "elevation_m": 2909,
  "prefecture": "長野県/岐阜県",
  "mountain_type": "",
  "priority": 100
 },
 {
  "id": 35,
  "source": "gsi_1003",
  "source_id": "0468",
  "name": "鑓ヶ岳",
  "name_kana": "やりがたけ",
  "latitude": 36.731389,
  "longitude": 137.755278,
  "elevation_m": 2903,
  "prefecture": "富山県/長野県",
  "mountain_type": "",
  "priority": 100
 },
 {
  "id": 36,
  "source": "gsi_1003",
  "source_id": "0449",
  "name": "赤岳",
  "name_kana": "あかだけ",
  "latitude": 35.970833,
  "longitude": 138.37,
  "elevation_m": 2899,
  "prefecture": "長野県/山梨県",
  "mountain_type": "",
  "priority": 100
 },
 {
  "id": 37,
  "source": "gsi_1003",
  "source_id": "0516",
  "name": "笠ヶ岳",
  "name_kana": "かさがたけ",
  "latitude": 36.315556,
  "longitude": 137.550278,
  "elevation_m": 2898,
  "prefecture": "岐阜県",
  "mountain_type": "",
  "priority": 100
 },
 {
  "id": 38,
  "source": "gsi_1003",
  "source_id": "0596",
  "name": "広河内岳",
  "name_kana": "ひろごうちだけ",
  "latitude": 35.606111,
  "longitude": 138.235833,
  "elevation_m": 2895,
  "prefecture": "山梨県/静岡県",
  "mountain_type": "",
  "priority": 100
 },
 {
  "id": 39,
  "source": "gsi_1003",
  "source_id": "0471",
  "name": "鹿島槍ヶ岳",
  "name_kana": "かしまやりがたけ",
  "latitude": 36.624444,
  "longitude": 137.746944,
  "elevation_m": 2889,
  "prefecture": "富山県/長野県",
  "mountain_type": "",
  "priority": 100
 },
 {
  "id": 40,
  "source": "gsi_1003",
  "source_id": "0496",
  "name": "別山",
  "name_kana": "べっさん",
  "latitude": 36.5975,
  "longitude": 137.620278,
  "elevation_m": 2880,
  "prefecture": "富山県",
  "mountain_type": "",
  "priority": 100
 },
 {
  "id": 41,
  "source": "gsi_1003",
  "source_id": "0503",
  "name": "龍王岳",
  "name_kana": "りゅうおうだけ",
  "latitude": 36.564722,
  "longitude": 137.607222,
  "elevation_m": 2872,
  "prefecture": "富山県",
  "mountain_type": "",
  "priority": 100
 },
 {
  "id": 42,
  "source": "gsi_1003",
  "source_id": "0465",
  "name": "旭岳",
  "name_kana": "あさひだけ",
  "latitude": 36.757778,
  "longitude": 137.745833,
  "elevation_m": 2867,
  "prefecture": "富山県",
  "mountain_type": "",
  "priority": 100
 },
 {
  "id": 43,
  "source": "gsi_1003",
  "source_id": "0604",
  "name": "蝙蝠岳",
  "name_kana": "こうもりだけ",
  "latitude": 35.556944,
  "longitude": 138.207222,
  "elevation_m": 2865,
  "prefecture": "静岡県",
  "mountain_type": "",
  "priority": 100
 },
 {
  "id": 44,
  "source": "gsi_1003",
  "source_id": "0564",
  "name": "空木岳",
  "name_kana": "うつぎだけ",
  "latitude": 35.718889,
  "longitude": 137.817222,
  "elevation_m": 2864,
  "prefecture": "長野県",
  "mountain_type": "",
  "priority": 100
 },
 {
  "id": 45,
  "source": "gsi_1003",
  "source_id": "0486",
  "name": "赤牛岳",
  "name_kana": "あかうしだけ",
  "latitude": 36.461667,
  "longitude": 137.603333,
  "elevation_m": 2864,
  "prefecture": "富山県",
  "mountain_type": "",
  "priority": 100
 },
 {
  "id": 46,
  "source": "gsi_1003",
  "source_id": "0500",
  "name": "真砂岳",
  "name_kana": "まさごだけ",
  "latitude": 36.586667,
  "longitude": 137.62,
  "elevation_m": 2861,
  "prefecture": "富山県",
  "mountain_type": "",
  "priority": 100
 },
 {
  "id": 47,
  "source": "gsi_1003",
  "source_id": "0512",
  "name": "双六岳",
  "name_kana": "すごろくだけ",
  "latitude": 36.371944,
  "longitude": 137.587222,
  "elevation_m": 2860,
  "prefecture": "長野県/岐阜県",
  "mountain_type": "",
  "priority": 100
 },
 {
  "id": 48,
  "source": "gsi_1003",
  "source_id": "0526",
  "name": "常念岳",
  "name_kana": "じょうねんだけ",
  "latitude": 36.325556,
  "longitude": 137.7275,
  "elevation_m": 2857,
  "prefecture": "長野県",
  "mountain_type": "",
  "priority": 100
 },
 {
  "id": 49,
  "source": "gsi_1003",
  "source_id": "0560",
  "name": "三沢岳",
  "name_kana": "さんのさわだけ",
  "latitude": 35.766667,
  "longitude": 137.794167,
  "elevation_m": 2847,
  "prefecture": "長野県",
  "mountain_type": "",
  "priority": 100
 },
 {
  "id": 50,
  "source": "gsi_1003",
  "source_id": "0483",
  "name": "三ッ岳",
  "name_kana": "みつだけ",
  "latitude": 36.454722,
  "longitude": 137.649444,
  "elevation_m": 2845,
  "prefecture": "富山県/長野県",
  "mountain_type": "",
  "priority": 100
 },
 {
  "id": 51,
  "source": "gsi_1003",
  "source_id": "0490",
  "name": "三俣蓮華岳",
  "name_kana": "みつまたれんげだけ",
  "latitude": 36.39,
  "longitude": 137.587778,
  "elevation_m": 2841,
  "prefecture": "富山県/岐阜県/長野県",
  "mountain_type": "",
  "priority": 100
 },
 {
  "id": 52,
  "source": "gsi_1003",
  "source_id": "0565",
  "name": "南駒ヶ岳",
  "name_kana": "みなみこまがたけ",
  "latitude": 35.701389,
  "longitude": 137.810833,
  "elevation_m": 2841,
  "prefecture": "長野県",
  "mountain_type": "",
  "priority": 100
 },
 {
  "id": 53,
  "source": "gsi_1003",
  "source_id": "0584",
  "name": "観音ヶ岳",
  "name_kana": "かんのんがだけ",
  "latitude": 35.701667,
  "longitude": 138.304722,
  "elevation_m": 2841,
  "prefecture": "山梨県",
  "mountain_type": "",
  "priority": 100
 },
 {
  "id": 54,
  "source": "gsi_1003",
  "source_id": "0511",
  "name": "黒部五郎岳（中ノ俣岳）",
  "name_kana": "くろべごろうだけ（なかのまただけ）",
  "latitude": 36.3925,
  "longitude": 137.54,
  "elevation_m": 2840,
  "prefecture": "富山県/岐阜県",
  "mountain_type": "",
  "priority": 100
 },
 {
  "id": 55,
  "source": "gsi_1003",
  "source_id": "0504",
  "name": "龍王岳",
  "name_kana": "りゅうおうだけ",
  "latitude": 36.568333,
  "longitude": 137.603611,
  "elevation_m": 2831,
  "prefecture": "富山県",
  "mountain_type": "",
  "priority": 100
 },
 {
  "id": 56,
  "source": "gsi_1003",
  "source_id": "0448",
  "name": "横岳",
  "name_kana": "よこだけ",
  "latitude": 35.984722,
  "longitude": 138.373611,
  "elevation_m": 2829,
  "prefecture": "長野県",
  "mountain_type": "",
  "priority": 100
 },
 {
  "id": 57,
  "source": "gsi_1003",
  "source_id": "0488",
  "name": "祖父岳",
  "name_kana": "じいだけ",
  "latitude": 36.411111,
  "longitude": 137.591111,
  "elevation_m": 2825,
  "prefecture": "富山県",
  "mountain_type": "",
  "priority": 100
 },
 {
  "id": 58,
  "source": "gsi_1003",
  "source_id": "0477",
  "name": "針ノ木岳",
  "name_kana": "はりのきだけ",
  "latitude": 36.538056,
  "longitude": 137.684444,
  "elevation_m": 2821,
  "prefecture": "富山県/長野県",
  "mountain_type": "",
  "priority": 100
 },
 {
  "id": 59,
  "source": "gsi_1003",
  "source_id": "0619",
  "name": "大沢岳",
  "name_kana": "おおさわだけ",
  "latitude": 35.448889,
  "longitude": 138.120278,
  "elevation_m": 2820,
  "prefecture": "長野県/静岡県",
  "mountain_type": "",
  "priority": 100
 },
 {
  "id": 60,
  "source": "gsi_1003",
  "source_id": "0621",
  "name": "兎岳",
  "name_kana": "うさぎだけ",
  "latitude": 35.428611,
  "longitude": 138.121111,
  "elevation_m": 2818,
  "prefecture": "長野県/静岡県",
  "mountain_type": "",
  "priority": 100
 },
 {
  "id": 61,
  "source": "gsi_1003",
  "source_id": "0470",
  "name": "五龍岳",
  "name_kana": "ごりゅうだけ",
  "latitude": 36.658333,
  "longitude": 137.752778,
  "elevation_m": 2814,
  "prefecture": "富山県",
  "mountain_type": "",
  "priority": 100
 },
 {
  "id": 62,
  "source": "gsi_1003",
  "source_id": "0524",
  "name": "東天井岳",
  "name_kana": "ひがしてんじょうだけ",
  "latitude": 36.353333,
  "longitude": 137.715556,
  "elevation_m": 2814,
  "prefecture": "長野県",
  "mountain_type": "",
  "priority": 100
 },
 {
  "id": 63,
  "source": "gsi_1003",
  "source_id": "0515",
  "name": "抜戸岳",
  "name_kana": "ぬけどだけ",
  "latitude": 36.327778,
  "longitude": 137.575,
  "elevation_m": 2813,
  "prefecture": "岐阜県",
  "mountain_type": "",
  "priority": 100
 },
 {
  "id": 64,
  "source": "gsi_1003",
  "source_id": "0467",
  "name": "杓子岳",
  "name_kana": "しゃくしだけ",
  "latitude": 36.740556,
  "longitude": 137.759167,
  "elevation_m": 2812,
  "prefecture": "富山県/長野県",
  "mountain_type": "",
  "priority": 100
 },
 {
  "id": 65,
  "source": "gsi_1003",
  "source_id": "0620",
  "name": "中盛丸山",
  "name_kana": "なかもりまるやま",
  "latitude": 35.442778,
  "longitude": 138.121944,
  "elevation_m": 2807,
  "prefecture": "長野県/静岡県",
  "mountain_type": "",
  "priority": 100
 },
 {
  "id": 66,
  "source": "gsi_1003",
  "source_id": "0450",
  "name": "阿弥陀岳",
  "name_kana": "あみだだけ",
  "latitude": 35.972222,
  "longitude": 138.358889,
  "elevation_m": 2805,
  "prefecture": "長野県",
  "mountain_type": "",
  "priority": 100
 },
 {
  "id": 67,
  "source": "gsi_1003",
  "source_id": "0623",
  "name": "上河内岳",
  "name_kana": "かみこうちだけ",
  "latitude": 35.389722,
  "longitude": 138.152778,
  "elevation_m": 2803,
  "prefecture": "静岡県",
  "mountain_type": "",
  "priority": 100
 },
 {
  "id": 68,
  "source": "gsi_1003",
  "source_id": "0609",
  "name": "小河内岳",
  "name_kana": "こごうちだけ",
  "latitude": 35.537778,
  "longitude": 138.153056,
  "elevation_m": 2802,
  "prefecture": "長野県/静岡県",
  "mountain_type": "",
  "priority": 100
 },
 {
  "id": 69,
  "source": "gsi_1003",
  "source_id": "0580",
  "name": "アサヨ峰",
  "name_kana": "あさよみね",
  "latitude": 35.731667,
  "longitude": 138.241389,
  "elevation_m": 2799,
  "prefecture": "山梨県",
  "mountain_type": "",
  "priority": 100
 },
 {
  "id": 70,
  "source": "gsi_1003",
  "source_id": "0478",
  "name": "蓮華岳",
  "name_kana": "れんげだけ",
  "latitude": 36.535833,
  "longitude": 137.710556,
  "elevation_m": 2799,
  "prefecture": "富山県/長野県",
  "mountain_type": "",
  "priority": 100
 },
 {
  "id": 71,
  "source": "gsi_1003",
  "source_id": "0566",
  "name": "南駒ヶ岳",
  "name_kana": "みなみこまがたけ",
  "latitude": 35.706111,
  "longitude": 137.815556,
  "elevation_m": 2798,
  "prefecture": "長野県",
  "mountain_type": "",
  "priority": 100
 },
 {
  "id": 72,
  "source": "gsi_1003",
  "source_id": "0585",
  "name": "薬師ヶ岳",
  "name_kana": "やくしがだけ",
  "latitude": 35.696111,
  "longitude": 138.311667,
  "elevation_m": 2780,
  "prefecture": "山梨県",
  "mountain_type": "",
  "priority": 100
 },
 {
  "id": 73,
  "source": "gsi_1003",
  "source_id": "0582",
  "name": "高嶺",
  "name_kana": "たかみね",
  "latitude": 35.709722,
  "longitude": 138.287778,
  "elevation_m": 2779,
  "prefecture": "山梨県",
  "mountain_type": "",
  "priority": 100
 },
 {
  "id": 74,
  "source": "gsi_1003",
  "source_id": "0562",
  "name": "熊沢岳",
  "name_kana": "くまざわだけ",
  "latitude": 35.739167,
  "longitude": 137.803333,
  "elevation_m": 2778,
  "prefecture": "長野県",
  "mountain_type": "",
  "priority": 100
 },
 {
  "id": 75,
  "source": "gsi_1003",
  "source_id": "0497",
  "name": "剱御前",
  "name_kana": "つるぎごぜん",
  "latitude": 36.6025,
  "longitude": 137.608889,
  "elevation_m": 2777,
  "prefecture": "富山県",
  "mountain_type": "",
  "priority": 100
 },
 {
  "id": 76,
  "source": "gsi_1003",
  "source_id": "0529",
  "name": "赤岩岳",
  "name_kana": "あかいわだけ",
  "latitude": 36.343333,
  "longitude": 137.684167,
  "elevation_m": 2769,
  "prefecture": "長野県",
  "mountain_type": "",
  "priority": 100
 },
 {
  "id": 77,
  "source": "gsi_1003",
  "source_id": "0597",
  "name": "大籠岳",
  "name_kana": "おおかごだけ",
  "latitude": 35.593056,
  "longitude": 138.243333,
  "elevation_m": 2767,
  "prefecture": "山梨県/静岡県",
  "mountain_type": "",
  "priority": 100
 },
 {
  "id": 78,
  "source": "gsi_1003",
  "source_id": "0525",
  "name": "横通岳",
  "name_kana": "よことおしだけ",
  "latitude": 36.3425,
  "longitude": 137.726944,
  "elevation_m": 2767,
  "prefecture": "長野県",
  "mountain_type": "",
  "priority": 100
 },
 {
  "id": 79,
  "source": "gsi_1003",
  "source_id": "0461",
  "name": "小蓮華山",
  "name_kana": "これんげさん",
  "latitude": 36.773611,
  "longitude": 137.776111,
  "elevation_m": 2766,
  "prefecture": "新潟県/長野県",
  "mountain_type": "",
  "priority": 100
 },
 {
  "id": 80,
  "source": "gsi_1003",
  "source_id": "0583",
  "name": "地蔵ヶ岳",
  "name_kana": "じぞうがたけ",
  "latitude": 35.712222,
  "longitude": 138.298611,
  "elevation_m": 2764,
  "prefecture": "山梨県",
  "mountain_type": "",
  "priority": 100
 },
 {
  "id": 81,
  "source": "gsi_1003",
  "source_id": "0521",
  "name": "燕岳",
  "name_kana": "つばくろだけ",
  "latitude": 36.406944,
  "longitude": 137.712778,
  "elevation_m": 2763,
  "prefecture": "長野県",
  "mountain_type": "",
  "priority": 100
 },
 {
  "id": 82,
  "source": "gsi_1003",
  "source_id": "0447",
  "name": "硫黄岳",
  "name_kana": "いおうだけ",
  "latitude": 35.998611,
  "longitude": 138.37,
  "elevation_m": 2760,
  "prefecture": "長野県",
  "mountain_type": "",
  "priority": 100
 },
 {
  "id": 83,
  "source": "gsi_1003",
  "source_id": "0530",
  "name": "西岳",
  "name_kana": "にしだけ",
  "latitude": 36.337222,
  "longitude": 137.679444,
  "elevation_m": 2758,
  "prefecture": "長野県",
  "mountain_type": "",
  "priority": 100
 },
 {
  "id": 84,
  "source": "gsi_1003",
  "source_id": "0513",
  "name": "樅沢岳",
  "name_kana": "もみさわだけ",
  "latitude": 36.366667,
  "longitude": 137.607778,
  "elevation_m": 2755,
  "prefecture": "長野県/岐阜県",
  "mountain_type": "",
  "priority": 100
 },
 {
  "id": 85,
  "source": "gsi_1003",
  "source_id": "0476",
  "name": "スバリ岳",
  "name_kana": "すばりだけ",
  "latitude": 36.544167,
  "longitude": 137.685,
  "elevation_m": 2752,
  "prefecture": "富山県/長野県",
  "mountain_type": "",
  "priority": 100
 },
 {
  "id": 86,
  "source": "gsi_1003",
  "source_id": "0578",
  "name": "駒津峰",
  "name_kana": "こまつみね",
  "latitude": 35.754722,
  "longitude": 138.230833,
  "elevation_m": 2752,
  "prefecture": "山梨県/長野県",
  "mountain_type": "",
  "priority": 100
 },
 {
  "id": 87,
  "source": "gsi_1003",
  "source_id": "0567",
  "name": "仙涯嶺",
  "name_kana": "せんがいれい",
  "latitude": 35.692222,
  "longitude": 137.813611,
  "elevation_m": 2734,
  "prefecture": "長野県",
  "mountain_type": "",
  "priority": 100
 },
 {
  "id": 88,
  "source": "gsi_1003",
  "source_id": "0598",
  "name": "笹山",
  "name_kana": "ささやま",
  "latitude": 35.571111,
  "longitude": 138.243889,
  "elevation_m": 2733,
  "prefecture": "山梨県/静岡県",
  "mountain_type": "",
  "priority": 100
 },
 {
  "id": 89,
  "source": "gsi_1003",
  "source_id": "0559",
  "name": "駒ヶ岳",
  "name_kana": "こまがたけ",
  "latitude": 35.796667,
  "longitude": 137.786111,
  "elevation_m": 2733,
  "prefecture": "長野県",
  "mountain_type": "",
  "priority": 100
 },
 {
  "id": 90,
  "source": "gsi_1003",
  "source_id": "0555",
  "name": "将棊頭山",
  "name_kana": "しょうぎがしらやま",
  "latitude": 35.803333,
  "longitude": 137.826944,
  "elevation_m": 2730,
  "prefecture": "長野県",
  "mountain_type": "",
  "priority": 100
 },
 {
  "id": 91,
  "source": "gsi_1003",
  "source_id": "0561",
  "name": "檜尾岳",
  "name_kana": "ひのきおだけ",
  "latitude": 35.751944,
  "longitude": 137.813333,
  "elevation_m": 2728,
  "prefecture": "長野県",
  "mountain_type": "",
  "priority": 100
 },
 {
  "id": 92,
  "source": "gsi_1003",
  "source_id": "0608",
  "name": "烏帽子岳",
  "name_kana": "えぼしだけ",
  "latitude": 35.553611,
  "longitude": 138.153611,
  "elevation_m": 2726,
  "prefecture": "長野県/静岡県",
  "mountain_type": "",
  "priority": 100
 },
 {
  "id": 93,
  "source": "gsi_1003",
  "source_id": "0590",
  "name": "小太郎山",
  "name_kana": "こたろうやま",
  "latitude": 35.700833,
  "longitude": 138.24,
  "elevation_m": 2725,
  "prefecture": "山梨県",
  "mountain_type": "",
  "priority": 100
 },
 {
  "id": 94,
  "source": "gsi_1003",
  "source_id": "0451",
  "name": "権現岳",
  "name_kana": "ごんげんだけ",
  "latitude": 35.949722,
  "longitude": 138.359722,
  "elevation_m": 2715,
  "prefecture": "山梨県",
  "mountain_type": "",
  "priority": 100
 },
 {
  "id": 95,
  "source": "gsi_1003",
  "source_id": "0581",
  "name": "アサヨ峰",
  "name_kana": "あさよみね",
  "latitude": 35.738056,
  "longitude": 138.234167,
  "elevation_m": 2714,
  "prefecture": "山梨県",
  "mountain_type": "",
  "priority": 100
 },
 {
  "id": 96,
  "source": "gsi_1003",
  "source_id": "0485",
  "name": "南真砂岳",
  "name_kana": "みなみまさごだけ",
  "latitude": 36.413333,
  "longitude": 137.641667,
  "elevation_m": 2713,
  "prefecture": "長野県",
  "mountain_type": "",
  "priority": 100
 },
 {
  "id": 97,
  "source": "gsi_1003",
  "source_id": "0682",
  "name": "白山",
  "name_kana": "はくさん",
  "latitude": 36.155,
  "longitude": 136.771389,
  "elevation_m": 2702,
  "prefecture": "石川県/岐阜県",
  "mountain_type": "",
  "priority": 100
 },
 {
  "id": 98,
  "source": "gsi_1003",
  "source_id": "0602",
  "name": "北荒川岳",
  "name_kana": "きたあらかわだけ",
  "latitude": 35.594722,
  "longitude": 138.194444,
  "elevation_m": 2698,
  "prefecture": "長野県",
  "mountain_type": "",
  "priority": 100
 },
 {
  "id": 99,
  "source": "gsi_1003",
  "source_id": "0469",
  "name": "唐松岳",
  "name_kana": "からまつだけ",
  "latitude": 36.687222,
  "longitude": 137.754722,
  "elevation_m": 2696,
  "prefecture": "富山県/長野県",
  "mountain_type": "",
  "priority": 100
 },
 {
  "id": 100,
  "source": "gsi_1003",
  "source_id": "0600",
  "name": "安倍荒倉岳",
  "name_kana": "あべあらくらだけ",
  "latitude": 35.623056,
  "longitude": 138.203056,
  "elevation_m": 2693,
  "prefecture": "長野県/静岡県",
  "mountain_type": "",
  "priority": 100
 },
 {
  "id": 101,
  "source": "gsi_1003",
  "source_id": "0576",
  "name": "鋸岳",
  "name_kana": "のこぎりだけ",
  "latitude": 35.778889,
  "longitude": 138.21,
  "elevation_m": 2685,
  "prefecture": "山梨県/長野県",
  "mountain_type": "",
  "priority": 100
 },
 {
  "id": 102,
  "source": "gsi_1003",
  "source_id": "0475",
  "name": "赤沢岳",
  "name_kana": "あかざわだけ",
  "latitude": 36.561944,
  "longitude": 137.6875,
  "elevation_m": 2678,
  "prefecture": "富山県/長野県",
  "mountain_type": "",
  "priority": 100
 },
 {
  "id": 103,
  "source": "gsi_1003",
  "source_id": "0527",
  "name": "蝶ヶ岳",
  "name_kana": "ちょうがたけ",
  "latitude": 36.2875,
  "longitude": 137.726111,
  "elevation_m": 2677,
  "prefecture": "長野県",
  "mountain_type": "",
  "priority": 100
 },
 {
  "id": 104,
  "source": "gsi_1003",
  "source_id": "0563",
  "name": "東川岳",
  "name_kana": "ひがしかわだけ",
  "latitude": 35.725278,
  "longitude": 137.805556,
  "elevation_m": 2671,
  "prefecture": "長野県",
  "mountain_type": "",
  "priority": 100
 },
 {
  "id": 105,
  "source": "gsi_1003",
  "source_id": "0472",
  "name": "爺ヶ岳",
  "name_kana": "じいがたけ",
  "latitude": 36.588333,
  "longitude": 137.750833,
  "elevation_m": 2670,
  "prefecture": "富山県/長野県",
  "mountain_type": "",
  "priority": 100
 },
 {
  "id": 106,
  "source": "gsi_1003",
  "source_id": "0531",
  "name": "赤沢山",
  "name_kana": "あかさわやま",
  "latitude": 36.329167,
  "longitude": 137.679722,
  "elevation_m": 2670,
  "prefecture": "長野県",
  "mountain_type": "",
  "priority": 100
 },
 {
  "id": 107,
  "source": "gsi_1003",
  "source_id": "0601",
  "name": "新蛇抜山",
  "name_kana": "しんじゃぬけやま",
  "latitude": 35.607222,
  "longitude": 138.205278,
  "elevation_m": 2667,
  "prefecture": "長野県/静岡県",
  "mountain_type": "",
  "priority": 100
 },
 {
  "id": 108,
  "source": "gsi_1003",
  "source_id": "0510",
  "name": "北ノ俣岳（上ノ岳）",
  "name_kana": "きたのまただけ（かみのだけ）",
  "latitude": 36.421111,
  "longitude": 137.512222,
  "elevation_m": 2662,
  "prefecture": "富山県/岐阜県",
  "mountain_type": "",
  "priority": 100
 },
 {
  "id": 109,
  "source": "gsi_1003",
  "source_id": "0556",
  "name": "将棊頭山",
  "name_kana": "しょうぎがしらやま",
  "latitude": 35.814722,
  "longitude": 137.821667,
  "elevation_m": 2658,
  "prefecture": "長野県",
  "mountain_type": "",
  "priority": 100
 },
 {
  "id": 110,
  "source": "gsi_1003",
  "source_id": "0606",
  "name": "本谷山",
  "name_kana": "ほんたにやま",
  "latitude": 35.570833,
  "longitude": 138.151667,
  "elevation_m": 2658,
  "prefecture": "長野県/静岡県",
  "mountain_type": "",
  "priority": 100
 },
 {
  "id": 111,
  "source": "gsi_1003",
  "source_id": "0579",
  "name": "双児山",
  "name_kana": "ふたごやま",
  "latitude": 35.750833,
  "longitude": 138.221389,
  "elevation_m": 2649,
  "prefecture": "山梨県/長野県",
  "mountain_type": "",
  "priority": 100
 },
 {
  "id": 112,
  "source": "gsi_1003",
  "source_id": "0520",
  "name": "餓鬼岳",
  "name_kana": "がきだけ",
  "latitude": 36.447222,
  "longitude": 137.736111,
  "elevation_m": 2647,
  "prefecture": "長野県",
  "mountain_type": "",
  "priority": 100
 },
 {
  "id": 113,
  "source": "gsi_1003",
  "source_id": "0445",
  "name": "天狗岳",
  "name_kana": "てんぐだけ",
  "latitude": 36.019167,
  "longitude": 138.355556,
  "elevation_m": 2646,
  "prefecture": "長野県",
  "mountain_type": "",
  "priority": 100
 },
 {
  "id": 114,
  "source": "gsi_1003",
  "source_id": "0612",
  "name": "板屋岳",
  "name_kana": "いたやだけ",
  "latitude": 35.518056,
  "longitude": 138.146111,
  "elevation_m": 2646,
  "prefecture": "長野県/静岡県",
  "mountain_type": "",
  "priority": 100
 },
 {
  "id": 115,
  "source": "gsi_1003",
  "source_id": "0542",
  "name": "霞沢岳",
  "name_kana": "かすみざわだけ",
  "latitude": 36.221111,
  "longitude": 137.640556,
  "elevation_m": 2646,
  "prefecture": "長野県",
  "mountain_type": "",
  "priority": 100
 },
 {
  "id": 116,
  "source": "gsi_1003",
  "source_id": "0474",
  "name": "鳴沢岳",
  "name_kana": "なるさわだけ",
  "latitude": 36.568611,
  "longitude": 137.695556,
  "elevation_m": 2641,
  "prefecture": "富山県/長野県",
  "mountain_type": "",
  "priority": 100
 },
 {
  "id": 117,
  "source": "gsi_1003",
  "source_id": "0519",
  "name": "唐沢岳",
  "name_kana": "からさわだけ",
  "latitude": 36.461111,
  "longitude": 137.716667,
  "elevation_m": 2633,
  "prefecture": "長野県",
  "mountain_type": "",
  "priority": 100
 },
 {
  "id": 118,
  "source": "gsi_1003",
  "source_id": "0473",
  "name": "岩小屋沢岳",
  "name_kana": "いわごやざわだけ",
  "latitude": 36.576944,
  "longitude": 137.713333,
  "elevation_m": 2630,
  "prefecture": "富山県/長野県",
  "mountain_type": "",
  "priority": 100
 },
 {
  "id": 119,
  "source": "gsi_1003",
  "source_id": "0638",
  "name": "笊ヶ岳",
  "name_kana": "ざるがたけ",
  "latitude": 35.424167,
  "longitude": 138.259444,
  "elevation_m": 2629,
  "prefecture": "山梨県/静岡県",
  "mountain_type": "",
  "priority": 100
 },
 {
  "id": 120,
  "source": "gsi_1003",
  "source_id": "0482",
  "name": "烏帽子岳",
  "name_kana": "えぼしだけ",
  "latitude": 36.479444,
  "longitude": 137.650833,
  "elevation_m": 2628,
  "prefecture": "富山県/長野県",
  "mountain_type": "",
  "priority": 100
 },
 {
  "id": 121,
  "source": "gsi_1003",
  "source_id": "0481",
  "name": "南沢岳",
  "name_kana": "みなみさわだけ",
  "latitude": 36.49,
  "longitude": 137.653056,
  "elevation_m": 2626,
  "prefecture": "富山県/長野県",
  "mountain_type": "",
  "priority": 100
 },
 {
  "id": 122,
  "source": "gsi_1003",
  "source_id": "0502",
  "name": "国見岳",
  "name_kana": "くにみだけ",
  "latitude": 36.571111,
  "longitude": 137.589722,
  "elevation_m": 2621,
  "prefecture": "富山県",
  "mountain_type": "",
  "priority": 100
 },
 {
  "id": 123,
  "source": "gsi_1003",
  "source_id": "0505",
  "name": "鷲岳",
  "name_kana": "わしだけ",
  "latitude": 36.541944,
  "longitude": 137.587222,
  "elevation_m": 2617,
  "prefecture": "富山県",
  "mountain_type": "",
  "priority": 100
 },
 {
  "id": 124,
  "source": "gsi_1003",
  "source_id": "0528",
  "name": "大滝山",
  "name_kana": "おおたきやま",
  "latitude": 36.274167,
  "longitude": 137.743333,
  "elevation_m": 2616,
  "prefecture": "長野県",
  "mountain_type": "",
  "priority": 100
 },
 {
  "id": 125,
  "source": "gsi_1003",
  "source_id": "0506",
  "name": "鳶山",
  "name_kana": "とんびやま",
  "latitude": 36.534167,
  "longitude": 137.585833,
  "elevation_m": 2616,
  "prefecture": "富山県",
  "mountain_type": "",
  "priority": 100
 },
 {
  "id": 126,
  "source": "gsi_1003",
  "source_id": "0568",
  "name": "越百山",
  "name_kana": "こすもやま",
  "latitude": 35.679444,
  "longitude": 137.803333,
  "elevation_m": 2614,
  "prefecture": "長野県",
  "mountain_type": "",
  "priority": 100
 },
 {
  "id": 127,
  "source": "gsi_1003",
  "source_id": "0498",
  "name": "奥大日岳",
  "name_kana": "おくだいにちだけ",
  "latitude": 36.598333,
  "longitude": 137.580833,
  "elevation_m": 2611,
  "prefecture": "富山県",
  "mountain_type": "",
  "priority": 100
 },
 {
  "id": 128,
  "source": "gsi_1003",
  "source_id": "0459",
  "name": "雪倉岳",
  "name_kana": "ゆきくらだけ",
  "latitude": 36.794722,
  "longitude": 137.754167,
  "elevation_m": 2611,
  "prefecture": "新潟県/富山県",
  "mountain_type": "",
  "priority": 100
 },
 {
  "id": 129,
  "source": "gsi_1003",
  "source_id": "0624",
  "name": "茶臼岳",
  "name_kana": "ちゃうすだけ",
  "latitude": 35.369167,
  "longitude": 138.140556,
  "elevation_m": 2604,
  "prefecture": "長野県/静岡県",
  "mountain_type": "",
  "priority": 100
 },
 {
  "id": 130,
  "source": "gsi_1003",
  "source_id": "0466",
  "name": "清水岳",
  "name_kana": "しょうずだけ",
  "latitude": 36.764722,
  "longitude": 137.718889,
  "elevation_m": 2603,
  "prefecture": "富山県",
  "mountain_type": "",
  "priority": 100
 },
 {
  "id": 131,
  "source": "gsi_1003",
  "source_id": "0480",
  "name": "不動岳",
  "name_kana": "ふどうだけ",
  "latitude": 36.495278,
  "longitude": 137.667222,
  "elevation_m": 2601,
  "prefecture": "富山県/長野県",
  "mountain_type": "",
  "priority": 100
 },
 {
  "id": 132,
  "source": "gsi_1003",
  "source_id": "0353",
  "name": "北奥千丈岳",
  "name_kana": "きたおくせんじょうだけ",
  "latitude": 35.868611,
  "longitude": 138.670833,
  "elevation_m": 2601,
  "prefecture": "山梨県",
  "mountain_type": "",
  "priority": 100
 },
 {
  "id": 133,
  "source": "gsi_1003",
  "source_id": "0605",
  "name": "徳右衛門岳",
  "name_kana": "とくえもんだけ",
  "latitude": 35.539444,
  "longitude": 138.226389,
  "elevation_m": 2599,
  "prefecture": "静岡県",
  "mountain_type": "",
  "priority": 100
 },
 {
  "id": 134,
  "source": "gsi_1003",
  "source_id": "0350",
  "name": "金峰山",
  "name_kana": "きんぷさん",
  "latitude": 35.871389,
  "longitude": 138.625278,
  "elevation_m": 2599,
  "prefecture": "山梨県/長野県",
  "mountain_type": "",
  "priority": 100
 },
 {
  "id": 135,
  "source": "gsi_1003",
  "source_id": "0626",
  "name": "光岳",
  "name_kana": "てかりだけ",
  "latitude": 35.338056,
  "longitude": 138.083889,
  "elevation_m": 2592,
  "prefecture": "静岡県/長野県",
  "mountain_type": "",
  "priority": 100
 },
 {
  "id": 136,
  "source": "gsi_1003",
  "source_id": "0352",
  "name": "国師ヶ岳",
  "name_kana": "こくしがたけ",
  "latitude": 35.870833,
  "longitude": 138.673056,
  "elevation_m": 2592,
  "prefecture": "山梨県/長野県",
  "mountain_type": "",
  "priority": 100
 },
 {
  "id": 137,
  "source": "gsi_1003",
  "source_id": "0514",
  "name": "弓折岳",
  "name_kana": "ゆみおりだけ",
  "latitude": 36.349444,
  "longitude": 137.596667,
  "elevation_m": 2592,
  "prefecture": "岐阜県",
  "mountain_type": "",
  "priority": 100
 },
 {
  "id": 138,
  "source": "gsi_1003",
  "source_id": "0507",
  "name": "越中沢岳",
  "name_kana": "えっちゅうざわだけ",
  "latitude": 36.515,
  "longitude": 137.583056,
  "elevation_m": 2592,
  "prefecture": "富山県",
  "mountain_type": "",
  "priority": 100
 },
 {
  "id": 139,
  "source": "gsi_1003",
  "source_id": "0586",
  "name": "辻山",
  "name_kana": "つじやま",
  "latitude": 35.676389,
  "longitude": 138.321944,
  "elevation_m": 2585,
  "prefecture": "山梨県",
  "mountain_type": "",
  "priority": 100
 },
 {
  "id": 140,
  "source": "gsi_1003",
  "source_id": "0639",
  "name": "布引山",
  "name_kana": "ぬのびきやま",
  "latitude": 35.408611,
  "longitude": 138.258333,
  "elevation_m": 2584,
  "prefecture": "山梨県/静岡県",
  "mountain_type": "",
  "priority": 100
 },
 {
  "id": 141,
  "source": "gsi_1003",
  "source_id": "0453",
  "name": "権現岳",
  "name_kana": "ごんげんだけ",
  "latitude": 35.942222,
  "longitude": 138.363889,
  "elevation_m": 2580,
  "prefecture": "山梨県",
  "mountain_type": "",
  "priority": 100
 },
 {
  "id": 142,
  "source": "gsi_1003",
  "source_id": "0351",
  "name": "朝日岳",
  "name_kana": "あさひだけ",
  "latitude": 35.874444,
  "longitude": 138.6425,
  "elevation_m": 2579,
  "prefecture": "山梨県/長野県",
  "mountain_type": "",
  "priority": 100
 },
 {
  "id": 143,
  "source": "gsi_1003",
  "source_id": "0273",
  "name": "白根山",
  "name_kana": "しらねさん",
  "latitude": 36.798611,
  "longitude": 139.375833,
  "elevation_m": 2578,
  "prefecture": "群馬県/栃木県",
  "mountain_type": "",
  "priority": 100
 },
 {
  "id": 144,
  "source": "gsi_1003",
  "source_id": "0611",
  "name": "大日影山",
  "name_kana": "おおひかげやま",
  "latitude": 35.522222,
  "longitude": 138.138333,
  "elevation_m": 2573,
  "prefecture": "長野県/静岡県",
  "mountain_type": "",
  "priority": 100
 },
 {
  "id": 145,
  "source": "gsi_1003",
  "source_id": "0446",
  "name": "峰の松目",
  "name_kana": "みねのまつめ",
  "latitude": 35.996944,
  "longitude": 138.350556,
  "elevation_m": 2568,
  "prefecture": "長野県",
  "mountain_type": "",
  "priority": 100
 },
 {
  "id": 146,
  "source": "gsi_1003",
  "source_id": "0334",
  "name": "浅間山",
  "name_kana": "あさまやま",
  "latitude": 36.406667,
  "longitude": 138.523056,
  "elevation_m": 2568,
  "prefecture": "群馬県/長野県",
  "mountain_type": "",
  "priority": 100
 },
 {
  "id": 147,
  "source": "gsi_1003",
  "source_id": "0460",
  "name": "鉢ヶ岳",
  "name_kana": "はちがたけ",
  "latitude": 36.780278,
  "longitude": 137.749444,
  "elevation_m": 2563,
  "prefecture": "新潟県/富山県",
  "mountain_type": "",
  "priority": 100
 },
 {
  "id": 148,
  "source": "gsi_1003",
  "source_id": "0595",
  "name": "大唐松山",
  "name_kana": "おおからまつやま",
  "latitude": 35.621667,
  "longitude": 138.269444,
  "elevation_m": 2561,
  "prefecture": "山梨県",
  "mountain_type": "",
  "priority": 100
 },
 {
  "id": 149,
  "source": "gsi_1003",
  "source_id": "0494",
  "name": "池平山",
  "name_kana": "いけのだいらやま",
  "latitude": 36.641111,
  "longitude": 137.625833,
  "elevation_m": 2561,
  "prefecture": "富山県",
  "mountain_type": "",
  "priority": 100
 },
 {
  "id": 150,
  "source": "gsi_1003",
  "source_id": "0681",
  "name": "七倉山",
  "name_kana": "ななくらやま",
  "latitude": 36.171111,
  "longitude": 136.758611,
  "elevation_m": 2557,
  "prefecture": "石川県",
  "mountain_type": "",
  "priority": 100
 },
 {
  "id": 151,
  "source": "gsi_1003",
  "source_id": "0518",
  "name": "硫黄岳",
  "name_kana": "いおうだけ",
  "latitude": 36.380556,
  "longitude": 137.650556,
  "elevation_m": 2554,
  "prefecture": "長野県",
  "mountain_type": "",
  "priority": 100
 },
 {
  "id": 152,
  "source": "gsi_1003",
  "source_id": "0479",
  "name": "北葛岳",
  "name_kana": "きたくずだけ",
  "latitude": 36.5175,
  "longitude": 137.705556,
  "elevation_m": 2551,
  "prefecture": "富山県/長野県",
  "mountain_type": "",
  "priority": 100
 },
 {
  "id": 153,
  "source": "gsi_1003",
  "source_id": "0599",
  "name": "黒檜山",
  "name_kana": "くろべいやま",
  "latitude": 35.644444,
  "longitude": 138.186111,
  "elevation_m": 2541,
  "prefecture": "長野県",
  "mountain_type": "",
  "priority": 100
 },
 {
  "id": 154,
  "source": "gsi_1003",
  "source_id": "0442",
  "name": "蓼科山",
  "name_kana": "たてしなやま",
  "latitude": 36.103611,
  "longitude": 138.295,
  "elevation_m": 2531,
  "prefecture": "長野県",
  "mountain_type": "",
  "priority": 100
 },
 {
  "id": 155,
  "source": "gsi_1003",
  "source_id": "0543",
  "name": "十石山",
  "name_kana": "じゅっこくやま",
  "latitude": 36.163611,
  "longitude": 137.590556,
  "elevation_m": 2525,
  "prefecture": "長野県/岐阜県",
  "mountain_type": "",
  "priority": 100
 },
 {
  "id": 156,
  "source": "gsi_1003",
  "source_id": "0625",
  "name": "仁田岳",
  "name_kana": "にっただけ",
  "latitude": 35.360833,
  "longitude": 138.127222,
  "elevation_m": 2524,
  "prefecture": "静岡県",
  "mountain_type": "",
  "priority": 100
 },
 {
  "id": 157,
  "source": "gsi_1003",
  "source_id": "0454",
  "name": "編笠山",
  "name_kana": "あみがさやま",
  "latitude": 35.941667,
  "longitude": 138.345,
  "elevation_m": 2524,
  "prefecture": "山梨県/長野県",
  "mountain_type": "",
  "priority": 100
 },
 {
  "id": 158,
  "source": "gsi_1003",
  "source_id": "0589",
  "name": "伊那荒倉岳",
  "name_kana": "いなあらくらだけ",
  "latitude": 35.689167,
  "longitude": 138.194167,
  "elevation_m": 2519,
  "prefecture": "山梨県/長野県",
  "mountain_type": "",
  "priority": 100
 },
 {
  "id": 159,
  "source": "gsi_1003",
  "source_id": "0610",
  "name": "小日影山",
  "name_kana": "こひかげやま",
  "latitude": 35.525278,
  "longitude": 138.126389,
  "elevation_m": 2506,
  "prefecture": "長野県",
  "mountain_type": "",
  "priority": 100
 },
 {
  "id": 160,
  "source": "gsi_1003",
  "source_id": "0499",
  "name": "大日岳",
  "name_kana": "だいにちだけ",
  "latitude": 36.599444,
  "longitude": 137.55,
  "elevation_m": 2501,
  "prefecture": "富山県",
  "mountain_type": "",
  "priority": 100
 },
 {
  "id": 161,
  "source": "gsi_1003",
  "source_id": "0272",
  "name": "男体山",
  "name_kana": "なんたいさん",
  "latitude": 36.765,
  "longitude": 139.490833,
  "elevation_m": 2486,
  "prefecture": "栃木県",
  "mountain_type": "",
  "priority": 100
 },
 {
  "id": 162,
  "source": "gsi_1003",
  "source_id": "0346",
  "name": "三宝山",
  "name_kana": "さんぽうやま",
  "latitude": 35.9175,
  "longitude": 138.727778,
  "elevation_m": 2483,
  "prefecture": "埼玉県/長野県",
  "mountain_type": "",
  "priority": 100
 },
 {
  "id": 163,
  "source": "gsi_1003",
  "source_id": "0268",
  "name": "女峰山",
  "name_kana": "にょほうさん",
  "latitude": 36.811389,
  "longitude": 139.536389,
  "elevation_m": 2483,
  "prefecture": "栃木県",
  "mountain_type": "",
  "priority": 100
 },
 {
  "id": 164,
  "source": "gsi_1003",
  "source_id": "0443",
  "name": "横岳",
  "name_kana": "よこだけ",
  "latitude": 36.0875,
  "longitude": 138.32,
  "elevation_m": 2480,
  "prefecture": "長野県",
  "mountain_type": "",
  "priority": 100
 },
 {
  "id": 165,
  "source": "gsi_1003",
  "source_id": "0347",
  "name": "甲武信ヶ岳",
  "name_kana": "こぶしがたけ",
  "latitude": 35.908889,
  "longitude": 138.728889,
  "elevation_m": 2475,
  "prefecture": "埼玉県/山梨県/長野県",
  "mountain_type": "",
  "priority": 100
 },
 {
  "id": 166,
  "source": "gsi_1003",
  "source_id": "0617",
  "name": "奥茶臼山",
  "name_kana": "おくちゃうすやま",
  "latitude": 35.485,
  "longitude": 138.069167,
  "elevation_m": 2474,
  "prefecture": "長野県",
  "mountain_type": "",
  "priority": 100
 },
 {
  "id": 167,
  "source": "gsi_1003",
  "source_id": "0462",
  "name": "乗鞍岳",
  "name_kana": "のりくらだけ",
  "latitude": 36.788611,
  "longitude": 137.799167,
  "elevation_m": 2469,
  "prefecture": "新潟県/長野県",
  "mountain_type": "",
  "priority": 100
 },
 {
  "id": 168,
  "source": "gsi_1003",
  "source_id": "0430",
  "name": "火打山",
  "name_kana": "ひうちやま",
  "latitude": 36.922778,
  "longitude": 138.068056,
  "elevation_m": 2462,
  "prefecture": "新潟県",
  "mountain_type": "",
  "priority": 100
 },
 {
  "id": 169,
  "source": "gsi_1003",
  "source_id": "0541",
  "name": "焼岳",
  "name_kana": "やけだけ",
  "latitude": 36.226944,
  "longitude": 137.586944,
  "elevation_m": 2455,
  "prefecture": "長野県/岐阜県",
  "mountain_type": "",
  "priority": 100
 },
 {
  "id": 170,
  "source": "gsi_1003",
  "source_id": "0431",
  "name": "妙高山",
  "name_kana": "みょうこうさん",
  "latitude": 36.891389,
  "longitude": 138.113333,
  "elevation_m": 2454,
  "prefecture": "新潟県",
  "mountain_type": "",
  "priority": 100
 },
 {
  "id": 171,
  "source": "gsi_1003",
  "source_id": "0547",
  "name": "鉢盛山",
  "name_kana": "はちもりやま",
  "latitude": 36.086667,
  "longitude": 137.754722,
  "elevation_m": 2447,
  "prefecture": "長野県",
  "mountain_type": "",
  "priority": 100
 },
 {
  "id": 172,
  "source": "gsi_1003",
  "source_id": "0458",
  "name": "朝日岳",
  "name_kana": "あさひだけ",
  "latitude": 36.826667,
  "longitude": 137.73,
  "elevation_m": 2418,
  "prefecture": "新潟県/富山県",
  "mountain_type": "",
  "priority": 100
 },
 {
  "id": 173,
  "source": "gsi_1003",
  "source_id": "0492",
  "name": "毛勝山",
  "name_kana": "けかつやま",
  "latitude": 36.701111,
  "longitude": 137.590833,
  "elevation_m": 2415,
  "prefecture": "富山県",
  "mountain_type": "",
  "priority": 100
 },
 {
  "id": 174,
  "source": "gsi_1003",
  "source_id": "0640",
  "name": "青薙山",
  "name_kana": "あおなぎやま",
  "latitude": 35.369722,
  "longitude": 138.228611,
  "elevation_m": 2406,
  "prefecture": "静岡県",
  "mountain_type": "",
  "priority": 100
 },
 {
  "id": 175,
  "source": "gsi_1003",
  "source_id": "0444",
  "name": "縞枯山",
  "name_kana": "しまがれやま",
  "latitude": 36.075556,
  "longitude": 138.331111,
  "elevation_m": 2403,
  "prefecture": "長野県",
  "mountain_type": "",
  "priority": 100
 },
 {
  "id": 176,
  "source": "gsi_1003",
  "source_id": "0428",
  "name": "焼山",
  "name_kana": "やけやま",
  "latitude": 36.920833,
  "longitude": 138.035833,
  "elevation_m": 2400,
  "prefecture": "新潟県",
  "mountain_type": "",
  "priority": 100
 },
 {
  "id": 177,
  "source": "gsi_1003",
  "source_id": "0684",
  "name": "別山",
  "name_kana": "べっさん",
  "latitude": 36.105556,
  "longitude": 136.765833,
  "elevation_m": 2399,
  "prefecture": "石川県/岐阜県",
  "mountain_type": "",
  "priority": 100
 },
 {
  "id": 178,
  "source": "gsi_1003",
  "source_id": "0452",
  "name": "権現岳",
  "name_kana": "ごんげんだけ",
  "latitude": 35.95,
  "longitude": 138.335,
  "elevation_m": 2398,
  "prefecture": "長野県",
  "mountain_type": "",
  "priority": 100
 },
 {
  "id": 179,
  "source": "gsi_1003",
  "source_id": "0627",
  "name": "池口岳",
  "name_kana": "いけぐちだけ",
  "latitude": 35.330278,
  "longitude": 138.038333,
  "elevation_m": 2392,
  "prefecture": "長野県/静岡県",
  "mountain_type": "",
  "priority": 100
 },
 {
  "id": 180,
  "source": "gsi_1003",
  "source_id": "0493",
  "name": "猫又山",
  "name_kana": "ねこまたやま",
  "latitude": 36.681111,
  "longitude": 137.590278,
  "elevation_m": 2378,
  "prefecture": "富山県",
  "mountain_type": "",
  "priority": 100
 },
 {
  "id": 181,
  "source": "gsi_1003",
  "source_id": "0269",
  "name": "女峰山",
  "name_kana": "にょほうさん",
  "latitude": 36.795278,
  "longitude": 139.507222,
  "elevation_m": 2376,
  "prefecture": "栃木県",
  "mountain_type": "",
  "priority": 100
 },
 {
  "id": 182,
  "source": "gsi_1003",
  "source_id": "0554",
  "name": "大棚入山",
  "name_kana": "おおだないりやま",
  "latitude": 35.848056,
  "longitude": 137.81,
  "elevation_m": 2375,
  "prefecture": "長野県",
  "mountain_type": "",
  "priority": 100
 },
 {
  "id": 183,
  "source": "gsi_1003",
  "source_id": "0271",
  "name": "太郎山",
  "name_kana": "たろうさん",
  "latitude": 36.817778,
  "longitude": 139.482778,
  "elevation_m": 2368,
  "prefecture": "栃木県",
  "mountain_type": "",
  "priority": 100
 },
 {
  "id": 184,
  "source": "gsi_1003",
  "source_id": "0569",
  "name": "安平路山",
  "name_kana": "あんぺいじやま",
  "latitude": 35.630556,
  "longitude": 137.774444,
  "elevation_m": 2363,
  "prefecture": "長野県",
  "mountain_type": "",
  "priority": 100
 },
 {
  "id": 185,
  "source": "gsi_1003",
  "source_id": "0293",
  "name": "燧ヶ岳",
  "name_kana": "ひうちがたけ",
  "latitude": 36.955,
  "longitude": 139.285278,
  "elevation_m": 2356,
  "prefecture": "福島県",
  "mountain_type": "",
  "priority": 100
 },
 {
  "id": 186,
  "source": "gsi_1003",
  "source_id": "0330",
  "name": "四阿山",
  "name_kana": "あずまやさん",
  "latitude": 36.541667,
  "longitude": 138.413056,
  "elevation_m": 2354,
  "prefecture": "長野県/群馬県",
  "mountain_type": "",
  "priority": 100
 },
 {
  "id": 187,
  "source": "gsi_1003",
  "source_id": "0433",
  "name": "高妻山",
  "name_kana": "たかつまやま",
  "latitude": 36.8,
  "longitude": 138.051944,
  "elevation_m": 2353,
  "prefecture": "新潟県/長野県",
  "mountain_type": "",
  "priority": 100
 },
 {
  "id": 188,
  "source": "gsi_1003",
  "source_id": "0323",
  "name": "岩菅山",
  "name_kana": "いわすげやま",
  "latitude": 36.752778,
  "longitude": 138.568056,
  "elevation_m": 2341,
  "prefecture": "長野県",
  "mountain_type": "",
  "priority": 100
 },
 {
  "id": 189,
  "source": "gsi_1003",
  "source_id": "0630",
  "name": "大無間山",
  "name_kana": "だいむげんざん",
  "latitude": 35.256111,
  "longitude": 138.161667,
  "elevation_m": 2330,
  "prefecture": "静岡県",
  "mountain_type": "",
  "priority": 100
 },
 {
  "id": 190,
  "source": "gsi_1003",
  "source_id": "0270",
  "name": "女峰山",
  "name_kana": "にょほうさん",
  "latitude": 36.807222,
  "longitude": 139.510833,
  "elevation_m": 2323,
  "prefecture": "栃木県",
  "mountain_type": "",
  "priority": 100
 },
 {
  "id": 191,
  "source": "gsi_1003",
  "source_id": "0327",
  "name": "横手山",
  "name_kana": "よこてやま",
  "latitude": 36.668889,
  "longitude": 138.525833,
  "elevation_m": 2307,
  "prefecture": "群馬県/長野県",
  "mountain_type": "",
  "priority": 100
 },
 {
  "id": 192,
  "source": "gsi_1003",
  "source_id": "0553",
  "name": "経ヶ岳",
  "name_kana": "きょうがたけ",
  "latitude": 35.912778,
  "longitude": 137.8625,
  "elevation_m": 2296,
  "prefecture": "長野県",
  "mountain_type": "",
  "priority": 100
 },
 {
  "id": 193,
  "source": "gsi_1003",
  "source_id": "0324",
  "name": "岩菅山",
  "name_kana": "いわすげやま",
  "latitude": 36.741944,
  "longitude": 138.559444,
  "elevation_m": 2295,
  "prefecture": "長野県",
  "mountain_type": "",
  "priority": 100
 },
 {
  "id": 194,
  "source": "gsi_1003",
  "source_id": "0034",
  "name": "大雪山",
  "name_kana": "たいせつざん",
  "latitude": 43.663611,
  "longitude": 142.854167,
  "elevation_m": 2291,
  "prefecture": "北海道",
  "mountain_type": "",
  "priority": 100
 },
 {
  "id": 195,
  "source": "gsi_1003",
  "source_id": "0522",
  "name": "有明山",
  "name_kana": "ありあけやま",
  "latitude": 36.391111,
  "longitude": 137.770556,
  "elevation_m": 2268,
  "prefecture": "長野県",
  "mountain_type": "",
  "priority": 100
 },
 {
  "id": 196,
  "source": "gsi_1003",
  "source_id": "0036",
  "name": "大雪山",
  "name_kana": "たいせつざん",
  "latitude": 43.692778,
  "longitude": 142.879722,
  "elevation_m": 2244,
  "prefecture": "北海道",
  "mountain_type": "",
  "priority": 100
 },
 {
  "id": 197,
  "source": "gsi_1003",
  "source_id": "0184",
  "name": "鳥海山",
  "name_kana": "ちょうかいざん",
  "latitude": 39.099167,
  "longitude": 140.048889,
  "elevation_m": 2236,
  "prefecture": "山形県",
  "mountain_type": "",
  "priority": 100
 },
 {
  "id": 198,
  "source": "gsi_1003",
  "source_id": "0038",
  "name": "大雪山",
  "name_kana": "たいせつざん",
  "latitude": 43.661111,
  "longitude": 142.905833,
  "elevation_m": 2230,
  "prefecture": "北海道",
  "mountain_type": "",
  "priority": 100
 },
 {
  "id": 199,
  "source": "gsi_1003",
  "source_id": "0349",
  "name": "瑞牆山",
  "name_kana": "みずがきやま",
  "latitude": 35.893333,
  "longitude": 138.591944,
  "elevation_m": 2230,
  "prefecture": "山梨県",
  "mountain_type": "",
  "priority": 100
 },
 {
  "id": 200,
  "source": "gsi_1003",
  "source_id": "0333",
  "name": "篭ノ登山",
  "name_kana": "かごのとやま",
  "latitude": 36.419444,
  "longitude": 138.447222,
  "elevation_m": 2228,
  "prefecture": "長野県/群馬県",
  "mountain_type": "",
  "priority": 100
 },
 {
  "id": 201,
  "source": "gsi_1003",
  "source_id": "0294",
  "name": "至仏山",
  "name_kana": "しぶつさん",
  "latitude": 36.903611,
  "longitude": 139.173333,
  "elevation_m": 2228,
  "prefecture": "群馬県",
  "mountain_type": "",
  "priority": 100
 },
 {
  "id": 202,
  "source": "gsi_1003",
  "source_id": "0331",
  "name": "四阿山",
  "name_kana": "あずまやさん",
  "latitude": 36.549167,
  "longitude": 138.395278,
  "elevation_m": 2207,
  "prefecture": "長野県",
  "mountain_type": "",
  "priority": 100
 },
 {
  "id": 203,
  "source": "gsi_1003",
  "source_id": "0319",
  "name": "佐武流山",
  "name_kana": "さぶりゅうやま",
  "latitude": 36.772222,
  "longitude": 138.670556,
  "elevation_m": 2192,
  "prefecture": "新潟県/長野県",
  "mountain_type": "",
  "priority": 100
 },
 {
  "id": 204,
  "source": "gsi_1003",
  "source_id": "0573",
  "name": "恵那山",
  "name_kana": "えなさん",
  "latitude": 35.443611,
  "longitude": 137.597222,
  "elevation_m": 2191,
  "prefecture": "長野県/岐阜県",
  "mountain_type": "",
  "priority": 100
 },
 {
  "id": 205,
  "source": "gsi_1003",
  "source_id": "0631",
  "name": "不動岳",
  "name_kana": "ふどうがたけ",
  "latitude": 35.235556,
  "longitude": 138.041111,
  "elevation_m": 2172,
  "prefecture": "静岡県",
  "mountain_type": "",
  "priority": 100
 },
 {
  "id": 206,
  "source": "gsi_1003",
  "source_id": "0329",
  "name": "本白根山",
  "name_kana": "もとしらねさん",
  "latitude": 36.622778,
  "longitude": 138.531944,
  "elevation_m": 2171,
  "prefecture": "群馬県",
  "mountain_type": "",
  "priority": 100
 },
 {
  "id": 207,
  "source": "gsi_1003",
  "source_id": "0570",
  "name": "摺古木山",
  "name_kana": "すりこぎやま",
  "latitude": 35.612778,
  "longitude": 137.7375,
  "elevation_m": 2169,
  "prefecture": "長野県",
  "mountain_type": "",
  "priority": 100
 },
 {
  "id": 208,
  "source": "gsi_1003",
  "source_id": "0517",
  "name": "錫杖岳",
  "name_kana": "しゃくじょうだけ",
  "latitude": 36.281944,
  "longitude": 137.547222,
  "elevation_m": 2168,
  "prefecture": "岐阜県",
  "mountain_type": "",
  "priority": 100
 },
 {
  "id": 209,
  "source": "gsi_1003",
  "source_id": "0286",
  "name": "黒岩山",
  "name_kana": "くろいわやま",
  "latitude": 36.908889,
  "longitude": 139.393611,
  "elevation_m": 2163,
  "prefecture": "栃木県/群馬県",
  "mountain_type": "",
  "priority": 100
 },
 {
  "id": 210,
  "source": "gsi_1003",
  "source_id": "0328",
  "name": "白根山",
  "name_kana": "しらねさん",
  "latitude": 36.643889,
  "longitude": 138.527778,
  "elevation_m": 2160,
  "prefecture": "群馬県",
  "mountain_type": "",
  "priority": 100
 },
 {
  "id": 211,
  "source": "gsi_1003",
  "source_id": "0295",
  "name": "武尊山",
  "name_kana": "ほたかやま",
  "latitude": 36.805278,
  "longitude": 139.1325,
  "elevation_m": 2158,
  "prefecture": "群馬県",
  "mountain_type": "",
  "priority": 100
 },
 {
  "id": 212,
  "source": "gsi_1003",
  "source_id": "0318",
  "name": "苗場山",
  "name_kana": "なえばさん",
  "latitude": 36.845833,
  "longitude": 138.690278,
  "elevation_m": 2145,
  "prefecture": "新潟県/長野県",
  "mountain_type": "",
  "priority": 100
 },
 {
  "id": 213,
  "source": "gsi_1003",
  "source_id": "0274",
  "name": "皇海山",
  "name_kana": "すかいさん",
  "latitude": 36.69,
  "longitude": 139.336944,
  "elevation_m": 2144,
  "prefecture": "栃木県/群馬県",
  "mountain_type": "",
  "priority": 100
 },
 {
  "id": 214,
  "source": "gsi_1003",
  "source_id": "0040",
  "name": "トムラウシ山",
  "name_kana": "とむらうしやま",
  "latitude": 43.527222,
  "longitude": 142.848889,
  "elevation_m": 2141,
  "prefecture": "北海道",
  "mountain_type": "",
  "priority": 100
 },
 {
  "id": 215,
  "source": "gsi_1003",
  "source_id": "0291",
  "name": "平ヶ岳",
  "name_kana": "ひらがたけ",
  "latitude": 37.001944,
  "longitude": 139.170833,
  "elevation_m": 2141,
  "prefecture": "群馬県/新潟県",
  "mountain_type": "",
  "priority": 100
 },
 {
  "id": 216,
  "source": "gsi_1003",
  "source_id": "0287",
  "name": "鬼怒沼山",
  "name_kana": "きぬぬまやま",
  "latitude": 36.882778,
  "longitude": 139.371667,
  "elevation_m": 2141,
  "prefecture": "栃木県/群馬県",
  "mountain_type": "",
  "priority": 100
 },
 {
  "id": 217,
  "source": "gsi_1003",
  "source_id": "0320",
  "name": "白砂山",
  "name_kana": "しらすなやま",
  "latitude": 36.738056,
  "longitude": 138.693611,
  "elevation_m": 2140,
  "prefecture": "群馬県/長野県",
  "mountain_type": "",
  "priority": 100
 },
 {
  "id": 218,
  "source": "gsi_1003",
  "source_id": "0290",
  "name": "駒ヶ岳",
  "name_kana": "こまがたけ",
  "latitude": 37.0475,
  "longitude": 139.353611,
  "elevation_m": 2133,
  "prefecture": "福島県",
  "mountain_type": "",
  "priority": 100
 },
 {
  "id": 219,
  "source": "gsi_1003",
  "source_id": "0244",
  "name": "大日岳",
  "name_kana": "だいにちだけ",
  "latitude": 37.832778,
  "longitude": 139.660278,
  "elevation_m": 2128,
  "prefecture": "新潟県",
  "mountain_type": "",
  "priority": 100
 },
 {
  "id": 220,
  "source": "gsi_1003",
  "source_id": "0546",
  "name": "鎌ヶ峰",
  "name_kana": "かまがみね",
  "latitude": 36.026667,
  "longitude": 137.599167,
  "elevation_m": 2121,
  "prefecture": "長野県/岐阜県",
  "mountain_type": "",
  "priority": 100
 },
 {
  "id": 221,
  "source": "gsi_1003",
  "source_id": "0037",
  "name": "大雪山",
  "name_kana": "たいせつざん",
  "latitude": 43.707778,
  "longitude": 142.857222,
  "elevation_m": 2113,
  "prefecture": "北海道",
  "mountain_type": "",
  "priority": 100
 },
 {
  "id": 222,
  "source": "gsi_1003",
  "source_id": "0345",
  "name": "御座山",
  "name_kana": "おぐらさん",
  "latitude": 36.033889,
  "longitude": 138.606667,
  "elevation_m": 2112,
  "prefecture": "長野県",
  "mountain_type": "",
  "priority": 100
 },
 {
  "id": 223,
  "source": "gsi_1003",
  "source_id": "0364",
  "name": "唐松尾山",
  "name_kana": "からまつおやま",
  "latitude": 35.867778,
  "longitude": 138.845278,
  "elevation_m": 2109,
  "prefecture": "埼玉県/山梨県",
  "mountain_type": "",
  "priority": 100
 },
 {
  "id": 224,
  "source": "gsi_1003",
  "source_id": "0243",
  "name": "飯豊山",
  "name_kana": "いいでさん",
  "latitude": 37.854722,
  "longitude": 139.707222,
  "elevation_m": 2105,
  "prefecture": "福島県",
  "mountain_type": "",
  "priority": 100
 },
 {
  "id": 225,
  "source": "gsi_1003",
  "source_id": "0332",
  "name": "湯ノ丸山",
  "name_kana": "ゆのまるやま",
  "latitude": 36.434722,
  "longitude": 138.401111,
  "elevation_m": 2101,
  "prefecture": "長野県/群馬県",
  "mountain_type": "",
  "priority": 100
 },
 {
  "id": 226,
  "source": "gsi_1003",
  "source_id": "1061",
  "name": "三ノ峰",
  "name_kana": "さんのみね",
  "latitude": 36.085833,
  "longitude": 136.755,
  "elevation_m": 2095,
  "prefecture": "福井県",
  "mountain_type": "",
  "priority": 100
 },
 {
  "id": 227,
  "source": "gsi_1003",
  "source_id": "0508",
  "name": "鍬崎山",
  "name_kana": "くわさきやま",
  "latitude": 36.54,
  "longitude": 137.478056,
  "elevation_m": 2090,
  "prefecture": "富山県",
  "mountain_type": "",
  "priority": 100
 },
 {
  "id": 228,
  "source": "gsi_1003",
  "source_id": "0305",
  "name": "中ノ岳",
  "name_kana": "なかのだけ",
  "latitude": 37.085278,
  "longitude": 139.0775,
  "elevation_m": 2085,
  "prefecture": "新潟県",
  "mountain_type": "",
  "priority": 100
 },
 {
  "id": 229,
  "source": "gsi_1003",
  "source_id": "0043",
  "name": "十勝岳",
  "name_kana": "とかちだけ",
  "latitude": 43.417778,
  "longitude": 142.686389,
  "elevation_m": 2077,
  "prefecture": "北海道",
  "mountain_type": "",
  "priority": 100
 },
 {
  "id": 230,
  "source": "gsi_1003",
  "source_id": "0365",
  "name": "大洞山（飛龍山）",
  "name_kana": "おおぼらやま（ひりゅうやま）",
  "latitude": 35.84,
  "longitude": 138.892222,
  "elevation_m": 2077,
  "prefecture": "埼玉県/山梨県",
  "mountain_type": "",
  "priority": 100
 },
 {
  "id": 231,
  "source": "gsi_1003",
  "source_id": "0326",
  "name": "笠ヶ岳",
  "name_kana": "かさがたけ",
  "latitude": 36.676667,
  "longitude": 138.481389,
  "elevation_m": 2076,
  "prefecture": "長野県",
  "mountain_type": "",
  "priority": 100
 },
 {
  "id": 232,
  "source": "gsi_1003",
  "source_id": "0632",
  "name": "黒法師岳",
  "name_kana": "くろぼうしがたけ",
  "latitude": 35.196111,
  "longitude": 138.029444,
  "elevation_m": 2068,
  "prefecture": "静岡県",
  "mountain_type": "",
  "priority": 100
 },
 {
  "id": 233,
  "source": "gsi_1003",
  "source_id": "0544",
  "name": "輝山",
  "name_kana": "てらしやま",
  "latitude": 36.194167,
  "longitude": 137.522222,
  "elevation_m": 2063,
  "prefecture": "岐阜県",
  "mountain_type": "",
  "priority": 100
 },
 {
  "id": 234,
  "source": "gsi_1003",
  "source_id": "0285",
  "name": "帝釈山",
  "name_kana": "たいしゃくざん",
  "latitude": 36.969722,
  "longitude": 139.46,
  "elevation_m": 2060,
  "prefecture": "福島県/栃木県",
  "mountain_type": "",
  "priority": 100
 },
 {
  "id": 235,
  "source": "gsi_1003",
  "source_id": "0680",
  "name": "三方崩山",
  "name_kana": "さんぽうくずれやま",
  "latitude": 36.178889,
  "longitude": 136.860278,
  "elevation_m": 2059,
  "prefecture": "岐阜県",
  "mountain_type": "",
  "priority": 100
 },
 {
  "id": 236,
  "source": "gsi_1003",
  "source_id": "0367",
  "name": "大菩薩嶺",
  "name_kana": "だいぼさつれい",
  "latitude": 35.748889,
  "longitude": 138.845556,
  "elevation_m": 2057,
  "prefecture": "山梨県",
  "mountain_type": "",
  "priority": 100
 },
 {
  "id": 237,
  "source": "gsi_1003",
  "source_id": "0683",
  "name": "白山釈迦岳",
  "name_kana": "はくさんしゃかだけ",
  "latitude": 36.152222,
  "longitude": 136.735556,
  "elevation_m": 2053,
  "prefecture": "石川県",
  "mountain_type": "",
  "priority": 100
 },
 {
  "id": 238,
  "source": "gsi_1003",
  "source_id": "0432",
  "name": "黒姫山",
  "name_kana": "くろひめやま",
  "latitude": 36.813333,
  "longitude": 138.127222,
  "elevation_m": 2053,
  "prefecture": "長野県",
  "mountain_type": "",
  "priority": 100
 },
 {
  "id": 239,
  "source": "gsi_1003",
  "source_id": "0074",
  "name": "幌尻岳",
  "name_kana": "ぽろしりだけ",
  "latitude": 42.719444,
  "longitude": 142.682778,
  "elevation_m": 2052,
  "prefecture": "北海道",
  "mountain_type": "",
  "priority": 100
 },
 {
  "id": 240,
  "source": "gsi_1003",
  "source_id": "0587",
  "name": "櫛形山",
  "name_kana": "くしがたやま",
  "latitude": 35.586667,
  "longitude": 138.369167,
  "elevation_m": 2052,
  "prefecture": "山梨県",
  "mountain_type": "",
  "priority": 100
 },
 {
  "id": 241,
  "source": "gsi_1003",
  "source_id": "0042",
  "name": "美瑛岳",
  "name_kana": "びえいだけ",
  "latitude": 43.44,
  "longitude": 142.706667,
  "elevation_m": 2052,
  "prefecture": "北海道",
  "mountain_type": "",
  "priority": 100
 },
 {
  "id": 242,
  "source": "gsi_1003",
  "source_id": "0170",
  "name": "岩手山",
  "name_kana": "いわてさん",
  "latitude": 39.8525,
  "longitude": 141.001111,
  "elevation_m": 2038,
  "prefecture": "岩手県",
  "mountain_type": "",
  "priority": 100
 },
 {
  "id": 243,
  "source": "gsi_1003",
  "source_id": "0321",
  "name": "鳥甲山",
  "name_kana": "とりかぶとやま",
  "latitude": 36.839167,
  "longitude": 138.583889,
  "elevation_m": 2038,
  "prefecture": "長野県",
  "mountain_type": "",
  "priority": 100
 },
 {
  "id": 244,
  "source": "gsi_1003",
  "source_id": "0325",
  "name": "志賀山",
  "name_kana": "しがやま",
  "latitude": 36.700278,
  "longitude": 138.515833,
  "elevation_m": 2037,
  "prefecture": "長野県",
  "mountain_type": "",
  "priority": 100
 },
 {
  "id": 245,
  "source": "gsi_1003",
  "source_id": "0363",
  "name": "白石山",
  "name_kana": "はくせきさん",
  "latitude": 35.899444,
  "longitude": 138.878056,
  "elevation_m": 2036,
  "prefecture": "埼玉県",
  "mountain_type": "",
  "priority": 100
 },
 {
  "id": 246,
  "source": "gsi_1003",
  "source_id": "0218",
  "name": "西吾妻山",
  "name_kana": "にしあづまやま",
  "latitude": 37.738333,
  "longitude": 140.140833,
  "elevation_m": 2035,
  "prefecture": "福島県/山形県",
  "mountain_type": "",
  "priority": 100
 },
 {
  "id": 247,
  "source": "gsi_1003",
  "source_id": "0439",
  "name": "美ヶ原",
  "name_kana": "うつくしがはら",
  "latitude": 36.225833,
  "longitude": 138.1075,
  "elevation_m": 2034,
  "prefecture": "長野県",
  "mountain_type": "",
  "priority": 100
 },
 {
  "id": 248,
  "source": "gsi_1003",
  "source_id": "0354",
  "name": "乾徳山",
  "name_kana": "けんとくさん",
  "latitude": 35.823056,
  "longitude": 138.715,
  "elevation_m": 2031,
  "prefecture": "山梨県",
  "mountain_type": "",
  "priority": 100
 },
 {
  "id": 249,
  "source": "gsi_1003",
  "source_id": "0316",
  "name": "仙ノ倉山",
  "name_kana": "せんのくらやま",
  "latitude": 36.8175,
  "longitude": 138.839444,
  "elevation_m": 2026,
  "prefecture": "群馬県/新潟県",
  "mountain_type": "",
  "priority": 100
 },
 {
  "id": 250,
  "source": "gsi_1003",
  "source_id": "0242",
  "name": "北股岳",
  "name_kana": "きたまただけ",
  "latitude": 37.88,
  "longitude": 139.638611,
  "elevation_m": 2025,
  "prefecture": "新潟県/山形県",
  "mountain_type": "",
  "priority": 100
 },
 {
  "id": 251,
  "source": "gsi_1003",
  "source_id": "0362",
  "name": "雲取山",
  "name_kana": "くもとりやま",
  "latitude": 35.855556,
  "longitude": 138.943889,
  "elevation_m": 2017,
  "prefecture": "埼玉県/東京都",
  "mountain_type": "",
  "priority": 100
 },
 {
  "id": 252,
  "source": "gsi_1003",
  "source_id": "0368",
  "name": "小金沢山",
  "name_kana": "こがねざわやま",
  "latitude": 35.716944,
  "longitude": 138.856667,
  "elevation_m": 2014,
  "prefecture": "山梨県",
  "mountain_type": "",
  "priority": 100
 },
 {
  "id": 253,
  "source": "gsi_1003",
  "source_id": "0041",
  "name": "オプタテシケ山",
  "name_kana": "おぷたてしけやま",
  "latitude": 43.470278,
  "longitude": 142.751667,
  "elevation_m": 2013,
  "prefecture": "北海道",
  "mountain_type": "",
  "priority": 100
 },
 {
  "id": 254,
  "source": "gsi_1003",
  "source_id": "0049",
  "name": "ニペソツ山",
  "name_kana": "にぺそつやま",
  "latitude": 43.455833,
  "longitude": 143.032222,
  "elevation_m": 2013,
  "prefecture": "北海道",
  "mountain_type": "",
  "priority": 100
 },
 {
  "id": 255,
  "source": "gsi_1003",
  "source_id": "0643",
  "name": "山伏",
  "name_kana": "やんぶし",
  "latitude": 35.304444,
  "longitude": 138.285278,
  "elevation_m": 2013,
  "prefecture": "山梨県/静岡県",
  "mountain_type": "",
  "priority": 100
 },
 {
  "id": 256,
  "source": "gsi_1003",
  "source_id": "0292",
  "name": "景鶴山",
  "name_kana": "けいづるやま",
  "latitude": 36.956944,
  "longitude": 139.210556,
  "elevation_m": 2004,
  "prefecture": "群馬県/新潟県",
  "mountain_type": "",
  "priority": 100
 },
 {
  "id": 257,
  "source": "gsi_1003",
  "source_id": "0303",
  "name": "駒ヶ岳",
  "name_kana": "こまがたけ",
  "latitude": 37.123611,
  "longitude": 139.075278,
  "elevation_m": 2003,
  "prefecture": "新潟県",
  "mountain_type": "",
  "priority": 100
 },
 {
  "id": 258,
  "source": "gsi_1003",
  "source_id": "0642",
  "name": "七面山",
  "name_kana": "しちめんざん",
  "latitude": 35.369444,
  "longitude": 138.348889,
  "elevation_m": 1989,
  "prefecture": "山梨県",
  "mountain_type": "",
  "priority": 100
 },
 {
  "id": 259,
  "source": "gsi_1003",
  "source_id": "0035",
  "name": "大雪山",
  "name_kana": "たいせつざん",
  "latitude": 43.6975,
  "longitude": 142.920278,
  "elevation_m": 1984,
  "prefecture": "北海道",
  "mountain_type": "",
  "priority": 100
 },
 {
  "id": 260,
  "source": "gsi_1003",
  "source_id": "0231",
  "name": "月山",
  "name_kana": "がっさん",
  "latitude": 38.548889,
  "longitude": 140.026944,
  "elevation_m": 1984,
  "prefecture": "山形県",
  "mountain_type": "",
  "priority": 100
 },
 {
  "id": 261,
  "source": "gsi_1003",
  "source_id": "0549",
  "name": "小秀山",
  "name_kana": "こひでやま",
  "latitude": 35.785556,
  "longitude": 137.396944,
  "elevation_m": 1982,
  "prefecture": "長野県/岐阜県",
  "mountain_type": "",
  "priority": 100
 },
 {
  "id": 262,
  "source": "gsi_1003",
  "source_id": "0928",
  "name": "石鎚山",
  "name_kana": "いしづちさん",
  "latitude": 33.767778,
  "longitude": 133.115,
  "elevation_m": 1982,
  "prefecture": "愛媛県",
  "mountain_type": "",
  "priority": 100
 },
 {
  "id": 263,
  "source": "gsi_1003",
  "source_id": "0219",
  "name": "西吾妻山",
  "name_kana": "にしあづまやま",
  "latitude": 37.733889,
  "longitude": 140.127778,
  "elevation_m": 1982,
  "prefecture": "山形県/福島県",
  "mountain_type": "",
  "priority": 100
 },
 {
  "id": 264,
  "source": "gsi_1003",
  "source_id": "0079",
  "name": "カムイエクウチカウシ山",
  "name_kana": "かむいえくうちかうしやま",
  "latitude": 42.625,
  "longitude": 142.766389,
  "elevation_m": 1979,
  "prefecture": "北海道",
  "mountain_type": "",
  "priority": 100
 },
 {
  "id": 265,
  "source": "gsi_1003",
  "source_id": "0312",
  "name": "谷川岳",
  "name_kana": "たにがわだけ",
  "latitude": 36.849167,
  "longitude": 138.916667,
  "elevation_m": 1978,
  "prefecture": "群馬県/新潟県",
  "mountain_type": "",
  "priority": 100
 },
 {
  "id": 266,
  "source": "gsi_1003",
  "source_id": "0314",
  "name": "谷川岳",
  "name_kana": "たにがわだけ",
  "latitude": 36.837222,
  "longitude": 138.93,
  "elevation_m": 1977,
  "prefecture": "群馬県/新潟県",
  "mountain_type": "",
  "priority": 100
 },
 {
  "id": 267,
  "source": "gsi_1003",
  "source_id": "0221",
  "name": "東吾妻山",
  "name_kana": "ひがしあづまやま",
  "latitude": 37.711667,
  "longitude": 140.230278,
  "elevation_m": 1975,
  "prefecture": "福島県",
  "mountain_type": "",
  "priority": 100
 },
 {
  "id": 268,
  "source": "gsi_1003",
  "source_id": "0313",
  "name": "谷川岳",
  "name_kana": "たにがわだけ",
  "latitude": 36.847222,
  "longitude": 138.924444,
  "elevation_m": 1974,
  "prefecture": "群馬県/新潟県",
  "mountain_type": "",
  "priority": 100
 },
 {
  "id": 269,
  "source": "gsi_1003",
  "source_id": "0284",
  "name": "田代山",
  "name_kana": "たしろやま",
  "latitude": 36.974444,
  "longitude": 139.478333,
  "elevation_m": 1971,
  "prefecture": "福島県",
  "mountain_type": "",
  "priority": 100
 },
 {
  "id": 270,
  "source": "gsi_1003",
  "source_id": "0306",
  "name": "荒沢岳",
  "name_kana": "あらさわだけ",
  "latitude": 37.100556,
  "longitude": 139.148056,
  "elevation_m": 1969,
  "prefecture": "新潟県",
  "mountain_type": "",
  "priority": 100
 },
 {
  "id": 271,
  "source": "gsi_1003",
  "source_id": "0308",
  "name": "巻機山",
  "name_kana": "まきはたやま",
  "latitude": 36.978611,
  "longitude": 138.964167,
  "elevation_m": 1967,
  "prefecture": "群馬県/新潟県",
  "mountain_type": "",
  "priority": 100
 },
 {
  "id": 272,
  "source": "gsi_1003",
  "source_id": "0047",
  "name": "石狩岳",
  "name_kana": "いしかりだけ",
  "latitude": 43.546667,
  "longitude": 143.022222,
  "elevation_m": 1967,
  "prefecture": "北海道",
  "mountain_type": "",
  "priority": 100
 },
 {
  "id": 273,
  "source": "gsi_1003",
  "source_id": "0397",
  "name": "毛無山",
  "name_kana": "けなしやま",
  "latitude": 35.415833,
  "longitude": 138.543889,
  "elevation_m": 1964,
  "prefecture": "山梨県/静岡県",
  "mountain_type": "",
  "priority": 100
 },
 {
  "id": 274,
  "source": "gsi_1003",
  "source_id": "0039",
  "name": "忠別岳",
  "name_kana": "ちゅうべつだけ",
  "latitude": 43.591111,
  "longitude": 142.894444,
  "elevation_m": 1963,
  "prefecture": "北海道",
  "mountain_type": "",
  "priority": 100
 },
 {
  "id": 275,
  "source": "gsi_1003",
  "source_id": "0429",
  "name": "雨飾山",
  "name_kana": "あまかざりやま",
  "latitude": 36.901944,
  "longitude": 137.9625,
  "elevation_m": 1963,
  "prefecture": "新潟県/長野県",
  "mountain_type": "",
  "priority": 100
 },
 {
  "id": 276,
  "source": "gsi_1003",
  "source_id": "0276",
  "name": "袈裟丸山",
  "name_kana": "けさまるやま",
  "latitude": 36.649444,
  "longitude": 139.327222,
  "elevation_m": 1961,
  "prefecture": "栃木県/群馬県",
  "mountain_type": "",
  "priority": 100
 },
 {
  "id": 277,
  "source": "gsi_1003",
  "source_id": "0073",
  "name": "戸蔦別岳",
  "name_kana": "とったべつだけ",
  "latitude": 42.738611,
  "longitude": 142.695,
  "elevation_m": 1959,
  "prefecture": "北海道",
  "mountain_type": "",
  "priority": 100
 },
 {
  "id": 278,
  "source": "gsi_1003",
  "source_id": "0575",
  "name": "入笠山",
  "name_kana": "にゅうがさやま",
  "latitude": 35.896389,
  "longitude": 138.171667,
  "elevation_m": 1955,
  "prefecture": "長野県",
  "mountain_type": "",
  "priority": 100
 },
 {
  "id": 279,
  "source": "gsi_1003",
  "source_id": "0905",
  "name": "剣山",
  "name_kana": "つるぎさん",
  "latitude": 33.853611,
  "longitude": 134.094167,
  "elevation_m": 1955,
  "prefecture": "徳島県",
  "mountain_type": "",
  "priority": 100
 },
 {
  "id": 280,
  "source": "gsi_1003",
  "source_id": "0315",
  "name": "万太郎山",
  "name_kana": "まんたろうさん",
  "latitude": 36.824167,
  "longitude": 138.879167,
  "elevation_m": 1954,
  "prefecture": "群馬県/新潟県",
  "mountain_type": "",
  "priority": 100
 },
 {
  "id": 281,
  "source": "gsi_1003",
  "source_id": "0222",
  "name": "東吾妻山",
  "name_kana": "ひがしあづまやま",
  "latitude": 37.735278,
  "longitude": 140.244444,
  "elevation_m": 1949,
  "prefecture": "福島県",
  "mountain_type": "",
  "priority": 100
 },
 {
  "id": 282,
  "source": "gsi_1003",
  "source_id": "0310",
  "name": "朝日岳",
  "name_kana": "あさひだけ",
  "latitude": 36.880556,
  "longitude": 138.9725,
  "elevation_m": 1945,
  "prefecture": "群馬県",
  "mountain_type": "",
  "priority": 100
 },
 {
  "id": 283,
  "source": "gsi_1003",
  "source_id": "1040",
  "name": "宮之浦岳",
  "name_kana": "みやのうらだけ",
  "latitude": 30.336111,
  "longitude": 130.504167,
  "elevation_m": 1936,
  "prefecture": "鹿児島県",
  "mountain_type": "",
  "priority": 100
 },
 {
  "id": 284,
  "source": "gsi_1003",
  "source_id": "0048",
  "name": "音更山",
  "name_kana": "おとふけやま",
  "latitude": 43.561667,
  "longitude": 143.035278,
  "elevation_m": 1932,
  "prefecture": "北海道",
  "mountain_type": "",
  "priority": 100
 },
 {
  "id": 285,
  "source": "gsi_1003",
  "source_id": "0929",
  "name": "二ノ森",
  "name_kana": "にのもり",
  "latitude": 33.758611,
  "longitude": 133.093889,
  "elevation_m": 1930,
  "prefecture": "愛媛県",
  "mountain_type": "",
  "priority": 100
 },
 {
  "id": 286,
  "source": "gsi_1003",
  "source_id": "0440",
  "name": "鉢伏山",
  "name_kana": "はちぶせやま",
  "latitude": 36.163056,
  "longitude": 138.059167,
  "elevation_m": 1929,
  "prefecture": "長野県",
  "mountain_type": "",
  "priority": 100
 },
 {
  "id": 287,
  "source": "gsi_1003",
  "source_id": "0307",
  "name": "下津川山",
  "name_kana": "しもつごうやま",
  "latitude": 36.994722,
  "longitude": 139.05,
  "elevation_m": 1928,
  "prefecture": "新潟県/群馬県",
  "mountain_type": "",
  "priority": 100
 },
 {
  "id": 288,
  "source": "gsi_1003",
  "source_id": "0220",
  "name": "西吾妻山",
  "name_kana": "にしあづまやま",
  "latitude": 37.754444,
  "longitude": 140.188889,
  "elevation_m": 1928,
  "prefecture": "福島県/山形県",
  "mountain_type": "",
  "priority": 100
 },
 {
  "id": 289,
  "source": "gsi_1003",
  "source_id": "0441",
  "name": "霧ヶ峰",
  "name_kana": "きりがみね",
  "latitude": 36.103056,
  "longitude": 138.196667,
  "elevation_m": 1925,
  "prefecture": "長野県",
  "mountain_type": "",
  "priority": 100
 },
 {
  "id": 290,
  "source": "gsi_1003",
  "source_id": "0044",
  "name": "上ホロカメットク山",
  "name_kana": "かみほろかめっとくやま",
  "latitude": 43.405,
  "longitude": 142.671667,
  "elevation_m": 1920,
  "prefecture": "北海道",
  "mountain_type": "",
  "priority": 100
 },
 {
  "id": 291,
  "source": "gsi_1003",
  "source_id": "0263",
  "name": "三本槍岳",
  "name_kana": "さんぼんやりだけ",
  "latitude": 37.150278,
  "longitude": 139.961389,
  "elevation_m": 1917,
  "prefecture": "福島県/栃木県",
  "mountain_type": "",
  "priority": 100
 },
 {
  "id": 292,
  "source": "gsi_1003",
  "source_id": "0145",
  "name": "早池峰山",
  "name_kana": "はやちねさん",
  "latitude": 39.558611,
  "longitude": 141.488611,
  "elevation_m": 1917,
  "prefecture": "岩手県",
  "mountain_type": "",
  "priority": 100
 },
 {
  "id": 293,
  "source": "gsi_1003",
  "source_id": "0435",
  "name": "飯縄山（飯綱山）",
  "name_kana": "いいづなやま（いいづなやま）",
  "latitude": 36.739444,
  "longitude": 138.133611,
  "elevation_m": 1917,
  "prefecture": "長野県",
  "mountain_type": "",
  "priority": 100
 },
 {
  "id": 294,
  "source": "gsi_1003",
  "source_id": "0072",
  "name": "ピパイロ岳",
  "name_kana": "ぴぱいろだけ",
  "latitude": 42.773056,
  "longitude": 142.7275,
  "elevation_m": 1916,
  "prefecture": "北海道",
  "mountain_type": "",
  "priority": 100
 },
 {
  "id": 295,
  "source": "gsi_1003",
  "source_id": "0756",
  "name": "八経ヶ岳",
  "name_kana": "はっきょうがだけ",
  "latitude": 34.173611,
  "longitude": 135.9075,
  "elevation_m": 1915,
  "prefecture": "奈良県",
  "mountain_type": "",
  "priority": 100
 },
 {
  "id": 296,
  "source": "gsi_1003",
  "source_id": "0264",
  "name": "那須岳",
  "name_kana": "なすだけ",
  "latitude": 37.124722,
  "longitude": 139.963056,
  "elevation_m": 1915,
  "prefecture": "栃木県",
  "mountain_type": "",
  "priority": 100
 },
 {
  "id": 297,
  "source": "gsi_1003",
  "source_id": "0045",
  "name": "富良野岳",
  "name_kana": "ふらのだけ",
  "latitude": 43.393611,
  "longitude": 142.635,
  "elevation_m": 1912,
  "prefecture": "北海道",
  "mountain_type": "",
  "priority": 100
 },
 {
  "id": 298,
  "source": "gsi_1003",
  "source_id": "0266",
  "name": "大佐飛山",
  "name_kana": "おおさびやま",
  "latitude": 37.063611,
  "longitude": 139.844444,
  "elevation_m": 1908,
  "prefecture": "栃木県",
  "mountain_type": "",
  "priority": 100
 },
 {
  "id": 299,
  "source": "gsi_1003",
  "source_id": "0434",
  "name": "戸隠山",
  "name_kana": "とがくしやま",
  "latitude": 36.770278,
  "longitude": 138.055,
  "elevation_m": 1904,
  "prefecture": "長野県",
  "mountain_type": "",
  "priority": 100
 },
 {
  "id": 300,
  "source": "gsi_1003",
  "source_id": "0075",
  "name": "エサオマントッタベツ岳",
  "name_kana": "えさおまんとったべつだけ",
  "latitude": 42.689167,
  "longitude": 142.757778,
  "elevation_m": 1902,
  "prefecture": "北海道",
  "mountain_type": "",
  "priority": 100
 },
 {
  "id": 301,
  "source": "gsi_1003",
  "source_id": "0104",
  "name": "羊蹄山（蝦夷富士）",
  "name_kana": "ようていざん（えぞふじ）",
  "latitude": 42.826667,
  "longitude": 140.811389,
  "elevation_m": 1898,
  "prefecture": "北海道",
  "mountain_type": "",
  "priority": 100
 },
 {
  "id": 302,
  "source": "gsi_1003",
  "source_id": "0927",
  "name": "瓶ヶ森",
  "name_kana": "かめがもり",
  "latitude": 33.794722,
  "longitude": 133.193333,
  "elevation_m": 1897,
  "prefecture": "愛媛県",
  "mountain_type": "",
  "priority": 100
 },
 {
  "id": 303,
  "source": "gsi_1003",
  "source_id": "0755",
  "name": "弥山",
  "name_kana": "みせん",
  "latitude": 34.18,
  "longitude": 135.909444,
  "elevation_m": 1895,
  "prefecture": "奈良県",
  "mountain_type": "",
  "priority": 100
 },
 {
  "id": 304,
  "source": "gsi_1003",
  "source_id": "0076",
  "name": "札内岳",
  "name_kana": "さつないだけ",
  "latitude": 42.693889,
  "longitude": 142.796667,
  "elevation_m": 1895,
  "prefecture": "北海道",
  "mountain_type": "",
  "priority": 100
 },
 {
  "id": 305,
  "source": "gsi_1003",
  "source_id": "0912",
  "name": "三嶺",
  "name_kana": "みうね",
  "latitude": 33.839444,
  "longitude": 133.987778,
  "elevation_m": 1894,
  "prefecture": "徳島県/高知県",
  "mountain_type": "",
  "priority": 100
 },
 {
  "id": 306,
  "source": "gsi_1003",
  "source_id": "0275",
  "name": "庚申山",
  "name_kana": "こうしんざん",
  "latitude": 36.673056,
  "longitude": 139.361111,
  "elevation_m": 1892,
  "prefecture": "栃木県",
  "mountain_type": "",
  "priority": 100
 },
 {
  "id": 307,
  "source": "gsi_1003",
  "source_id": "0618",
  "name": "鬼面山",
  "name_kana": "きめんざん",
  "latitude": 35.491944,
  "longitude": 137.990278,
  "elevation_m": 1890,
  "prefecture": "長野県",
  "mountain_type": "",
  "priority": 100
 },
 {
  "id": 308,
  "source": "gsi_1003",
  "source_id": "0463",
  "name": "風吹岳",
  "name_kana": "かざふきだけ",
  "latitude": 36.814167,
  "longitude": 137.838889,
  "elevation_m": 1888,
  "prefecture": "長野県",
  "mountain_type": "",
  "priority": 100
 },
 {
  "id": 309,
  "source": "gsi_1003",
  "source_id": "1041",
  "name": "永田岳",
  "name_kana": "ながただけ",
  "latitude": 30.342778,
  "longitude": 130.4925,
  "elevation_m": 1886,
  "prefecture": "鹿児島県",
  "mountain_type": "",
  "priority": 100
 },
 {
  "id": 310,
  "source": "gsi_1003",
  "source_id": "0030",
  "name": "ニセイカウシュッペ山",
  "name_kana": "にせいかうしゅっぺやま",
  "latitude": 43.78,
  "longitude": 142.985278,
  "elevation_m": 1883,
  "prefecture": "北海道",
  "mountain_type": "",
  "priority": 100
 },
 {
  "id": 311,
  "source": "gsi_1003",
  "source_id": "0071",
  "name": "チロロ岳",
  "name_kana": "ちろろだけ",
  "latitude": 42.825556,
  "longitude": 142.675278,
  "elevation_m": 1880,
  "prefecture": "北海道",
  "mountain_type": "",
  "priority": 100
 },
 {
  "id": 312,
  "source": "gsi_1003",
  "source_id": "0031",
  "name": "武利岳",
  "name_kana": "むりいだけ",
  "latitude": 43.733056,
  "longitude": 143.176389,
  "elevation_m": 1876,
  "prefecture": "北海道",
  "mountain_type": "",
  "priority": 100
 },
 {
  "id": 313,
  "source": "gsi_1003",
  "source_id": "0665",
  "name": "猿ヶ馬場山",
  "name_kana": "さるがばばやま",
  "latitude": 36.225833,
  "longitude": 136.942778,
  "elevation_m": 1875,
  "prefecture": "岐阜県",
  "mountain_type": "",
  "priority": 100
 },
 {
  "id": 314,
  "source": "gsi_1003",
  "source_id": "0369",
  "name": "雁ケ腹摺山",
  "name_kana": "がんがはらすりやま",
  "latitude": 35.686944,
  "longitude": 138.885,
  "elevation_m": 1874,
  "prefecture": "山梨県",
  "mountain_type": "",
  "priority": 100
 },
 {
  "id": 315,
  "source": "gsi_1003",
  "source_id": "0236",
  "name": "朝日岳",
  "name_kana": "あさひだけ",
  "latitude": 38.260556,
  "longitude": 139.922222,
  "elevation_m": 1871,
  "prefecture": "山形県",
  "mountain_type": "",
  "priority": 100
 },
 {
  "id": 316,
  "source": "gsi_1003",
  "source_id": "0925",
  "name": "笹ヶ峰",
  "name_kana": "ささがみね",
  "latitude": 33.828056,
  "longitude": 133.274722,
  "elevation_m": 1860,
  "prefecture": "愛媛県/高知県",
  "mountain_type": "",
  "priority": 100
 },
 {
  "id": 317,
  "source": "gsi_1003",
  "source_id": "0930",
  "name": "筒上山",
  "name_kana": "つつじょうざん",
  "latitude": 33.731944,
  "longitude": 133.161111,
  "elevation_m": 1860,
  "prefecture": "愛媛県/高知県",
  "mountain_type": "",
  "priority": 100
 },
 {
  "id": 318,
  "source": "gsi_1003",
  "source_id": "0491",
  "name": "僧ヶ岳",
  "name_kana": "そうがだけ",
  "latitude": 36.761667,
  "longitude": 137.563611,
  "elevation_m": 1855,
  "prefecture": "富山県",
  "mountain_type": "",
  "priority": 100
 },
 {
  "id": 319,
  "source": "gsi_1003",
  "source_id": "0628",
  "name": "白倉山",
  "name_kana": "しらくらやま",
  "latitude": 35.301667,
  "longitude": 137.992222,
  "elevation_m": 1851,
  "prefecture": "長野県/静岡県",
  "mountain_type": "",
  "priority": 100
 },
 {
  "id": 320,
  "source": "gsi_1003",
  "source_id": "0908",
  "name": "矢筈山",
  "name_kana": "やはずさん",
  "latitude": 33.925,
  "longitude": 133.975,
  "elevation_m": 1849,
  "prefecture": "徳島県",
  "mountain_type": "",
  "priority": 100
 },
 {
  "id": 321,
  "source": "gsi_1003",
  "source_id": "0050",
  "name": "ウペペサンケ山",
  "name_kana": "うぺぺさんけやま",
  "latitude": 43.389444,
  "longitude": 143.081944,
  "elevation_m": 1848,
  "prefecture": "北海道",
  "mountain_type": "",
  "priority": 100
 },
 {
  "id": 322,
  "source": "gsi_1003",
  "source_id": "0077",
  "name": "十勝幌尻岳",
  "name_kana": "とかちぽろしりだけ",
  "latitude": 42.695556,
  "longitude": 142.859444,
  "elevation_m": 1846,
  "prefecture": "北海道",
  "mountain_type": "",
  "priority": 100
 },
 {
  "id": 323,
  "source": "gsi_1003",
  "source_id": "0080",
  "name": "１８３９峰",
  "name_kana": "いっぱさんきゅうほう",
  "latitude": 42.539444,
  "longitude": 142.808056,
  "elevation_m": 1842,
  "prefecture": "北海道",
  "mountain_type": "",
  "priority": 100
 },
 {
  "id": 324,
  "source": "gsi_1003",
  "source_id": "0678",
  "name": "笈ヶ岳",
  "name_kana": "おいずるがだけ",
  "latitude": 36.298611,
  "longitude": 136.792222,
  "elevation_m": 1841,
  "prefecture": "富山県/石川県/岐阜県",
  "mountain_type": "",
  "priority": 100
 },
 {
  "id": 325,
  "source": "gsi_1003",
  "source_id": "0211",
  "name": "蔵王山",
  "name_kana": "ざおうざん（ざおうさん）",
  "latitude": 38.143611,
  "longitude": 140.44,
  "elevation_m": 1841,
  "prefecture": "山形県",
  "mountain_type": "",
  "priority": 100
 },
 {
  "id": 326,
  "source": "gsi_1003",
  "source_id": "0278",
  "name": "赤城山",
  "name_kana": "あかぎさん",
  "latitude": 36.560278,
  "longitude": 139.193333,
  "elevation_m": 1828,
  "prefecture": "群馬県",
  "mountain_type": "",
  "priority": 100
 },
 {
  "id": 327,
  "source": "gsi_1003",
  "source_id": "0213",
  "name": "蔵王山",
  "name_kana": "ざおうざん（ざおうさん）",
  "latitude": 38.095833,
  "longitude": 140.476111,
  "elevation_m": 1825,
  "prefecture": "宮城県",
  "mountain_type": "",
  "priority": 100
 },
 {
  "id": 328,
  "source": "gsi_1003",
  "source_id": "0677",
  "name": "大笠山",
  "name_kana": "おおがさやま",
  "latitude": 36.320556,
  "longitude": 136.789722,
  "elevation_m": 1822,
  "prefecture": "富山県/石川県",
  "mountain_type": "",
  "priority": 100
 },
 {
  "id": 329,
  "source": "gsi_1003",
  "source_id": "0289",
  "name": "丸山岳",
  "name_kana": "まるやまだけ",
  "latitude": 37.172778,
  "longitude": 139.334722,
  "elevation_m": 1820,
  "prefecture": "福島県",
  "mountain_type": "",
  "priority": 100
 },
 {
  "id": 330,
  "source": "gsi_1003",
  "source_id": "0348",
  "name": "横尾山",
  "name_kana": "よこおやま",
  "latitude": 35.918889,
  "longitude": 138.521111,
  "elevation_m": 1818,
  "prefecture": "山梨県/長野県",
  "mountain_type": "",
  "priority": 100
 },
 {
  "id": 331,
  "source": "gsi_1003",
  "source_id": "0666",
  "name": "御前岳",
  "name_kana": "ごぜんだけ",
  "latitude": 36.198056,
  "longitude": 136.960278,
  "elevation_m": 1816,
  "prefecture": "岐阜県",
  "mountain_type": "",
  "priority": 100
 },
 {
  "id": 332,
  "source": "gsi_1003",
  "source_id": "0227",
  "name": "磐梯山",
  "name_kana": "ばんだいさん",
  "latitude": 37.601111,
  "longitude": 140.072222,
  "elevation_m": 1816,
  "prefecture": "福島県",
  "mountain_type": "",
  "priority": 100
 },
 {
  "id": 333,
  "source": "gsi_1003",
  "source_id": "0911",
  "name": "天狗塚",
  "name_kana": "てんぐづか",
  "latitude": 33.826944,
  "longitude": 133.943333,
  "elevation_m": 1812,
  "prefecture": "徳島県",
  "mountain_type": "",
  "priority": 100
 },
 {
  "id": 334,
  "source": "gsi_1003",
  "source_id": "0550",
  "name": "奥三界岳",
  "name_kana": "おくさんがいだけ",
  "latitude": 35.681667,
  "longitude": 137.507222,
  "elevation_m": 1811,
  "prefecture": "岐阜県/長野県",
  "mountain_type": "",
  "priority": 100
 },
 {
  "id": 335,
  "source": "gsi_1003",
  "source_id": "0757",
  "name": "仏生嶽",
  "name_kana": "ぶっしょうがだけ",
  "latitude": 34.134444,
  "longitude": 135.913056,
  "elevation_m": 1805,
  "prefecture": "奈良県",
  "mountain_type": "",
  "priority": 100
 },
 {
  "id": 336,
  "source": "gsi_1003",
  "source_id": "0758",
  "name": "釈迦ヶ岳",
  "name_kana": "しゃかがだけ",
  "latitude": 34.114444,
  "longitude": 135.903056,
  "elevation_m": 1800,
  "prefecture": "奈良県",
  "mountain_type": "",
  "priority": 100
 },
 {
  "id": 337,
  "source": "gsi_1003",
  "source_id": "0267",
  "name": "高原山",
  "name_kana": "たかはらやま",
  "latitude": 36.9,
  "longitude": 139.776667,
  "elevation_m": 1795,
  "prefecture": "栃木県",
  "mountain_type": "",
  "priority": 100
 },
 {
  "id": 338,
  "source": "gsi_1003",
  "source_id": "0392",
  "name": "黒岳",
  "name_kana": "くろたけ",
  "latitude": 35.551944,
  "longitude": 138.749444,
  "elevation_m": 1793,
  "prefecture": "山梨県",
  "mountain_type": "",
  "priority": 100
 },
 {
  "id": 339,
  "source": "gsi_1003",
  "source_id": "0966",
  "name": "くじゅう連山",
  "name_kana": "くじゅうれんざん",
  "latitude": 33.085833,
  "longitude": 131.248889,
  "elevation_m": 1791,
  "prefecture": "大分県",
  "mountain_type": "",
  "priority": 100
 },
 {
  "id": 340,
  "source": "gsi_1003",
  "source_id": "0971",
  "name": "くじゅう連山",
  "name_kana": "くじゅうれんざん",
  "latitude": 33.082222,
  "longitude": 131.240833,
  "elevation_m": 1787,
  "prefecture": "大分県",
  "mountain_type": "",
  "priority": 100
 },
 {
  "id": 341,
  "source": "gsi_1003",
  "source_id": "0968",
  "name": "くじゅう連山",
  "name_kana": "くじゅうれんざん",
  "latitude": 33.095,
  "longitude": 131.280556,
  "elevation_m": 1786,
  "prefecture": "大分県",
  "mountain_type": "",
  "priority": 100
 },
 {
  "id": 342,
  "source": "gsi_1003",
  "source_id": "0391",
  "name": "三ッ峠山",
  "name_kana": "みつとうげやま",
  "latitude": 35.549167,
  "longitude": 138.809167,
  "elevation_m": 1785,
  "prefecture": "山梨県",
  "mountain_type": "",
  "priority": 100
 },
 {
  "id": 343,
  "source": "gsi_1003",
  "source_id": "0754",
  "name": "大普賢岳",
  "name_kana": "だいふげんだけ",
  "latitude": 34.227778,
  "longitude": 135.962778,
  "elevation_m": 1780,
  "prefecture": "奈良県",
  "mountain_type": "",
  "priority": 100
 },
 {
  "id": 344,
  "source": "gsi_1003",
  "source_id": "0304",
  "name": "八海山",
  "name_kana": "はっかいさん",
  "latitude": 37.103889,
  "longitude": 139.024722,
  "elevation_m": 1778,
  "prefecture": "新潟県",
  "mountain_type": "",
  "priority": 100
 },
 {
  "id": 345,
  "source": "gsi_1003",
  "source_id": "0265",
  "name": "男鹿岳",
  "name_kana": "おがたけ",
  "latitude": 37.085278,
  "longitude": 139.821944,
  "elevation_m": 1777,
  "prefecture": "福島県/栃木県",
  "mountain_type": "",
  "priority": 100
 },
 {
  "id": 346,
  "source": "gsi_1003",
  "source_id": "0235",
  "name": "以東岳",
  "name_kana": "いとうだけ",
  "latitude": 38.343056,
  "longitude": 139.849167,
  "elevation_m": 1772,
  "prefecture": "山形県/新潟県",
  "mountain_type": "",
  "priority": 100
 },
 {
  "id": 347,
  "source": "gsi_1003",
  "source_id": "0913",
  "name": "白髪山",
  "name_kana": "しらがやま",
  "latitude": 33.81,
  "longitude": 133.993056,
  "elevation_m": 1770,
  "prefecture": "高知県",
  "mountain_type": "",
  "priority": 100
 },
 {
  "id": 348,
  "source": "gsi_1003",
  "source_id": "0664",
  "name": "三ヶ辻山",
  "name_kana": "みつがつじやま",
  "latitude": 36.338056,
  "longitude": 136.95,
  "elevation_m": 1764,
  "prefecture": "岐阜県",
  "mountain_type": "",
  "priority": 100
 },
 {
  "id": 349,
  "source": "gsi_1003",
  "source_id": "0970",
  "name": "くじゅう連山",
  "name_kana": "くじゅうれんざん",
  "latitude": 33.090833,
  "longitude": 131.2325,
  "elevation_m": 1762,
  "prefecture": "大分県",
  "mountain_type": "",
  "priority": 100
 },
 {
  "id": 350,
  "source": "gsi_1003",
  "source_id": "0032",
  "name": "武華山",
  "name_kana": "むかやま",
  "latitude": 43.705833,
  "longitude": 143.160556,
  "elevation_m": 1759,
  "prefecture": "北海道",
  "mountain_type": "",
  "priority": 100
 },
 {
  "id": 351,
  "source": "gsi_1003",
  "source_id": "0212",
  "name": "蔵王山",
  "name_kana": "ざおうざん（ざおうさん）",
  "latitude": 38.127778,
  "longitude": 140.448056,
  "elevation_m": 1758,
  "prefecture": "宮城県",
  "mountain_type": "",
  "priority": 100
 },
 {
  "id": 352,
  "source": "gsi_1003",
  "source_id": "0335",
  "name": "浅間隠山",
  "name_kana": "あさまかくしやま",
  "latitude": 36.453611,
  "longitude": 138.6525,
  "elevation_m": 1757,
  "prefecture": "群馬県",
  "mountain_type": "",
  "priority": 100
 },
 {
  "id": 353,
  "source": "gsi_1003",
  "source_id": "1059",
  "name": "鳥海山",
  "name_kana": "ちょうかいざん",
  "latitude": 39.095556,
  "longitude": 140.065278,
  "elevation_m": 1757,
  "prefecture": "秋田県",
  "mountain_type": "",
  "priority": 100
 },
 {
  "id": 354,
  "source": "gsi_1003",
  "source_id": "0926",
  "name": "伊予富士",
  "name_kana": "いよふじ",
  "latitude": 33.788056,
  "longitude": 133.248056,
  "elevation_m": 1756,
  "prefecture": "愛媛県/高知県",
  "mountain_type": "",
  "priority": 100
 },
 {
  "id": 355,
  "source": "gsi_1003",
  "source_id": "1003",
  "name": "祖母山",
  "name_kana": "そぼさん",
  "latitude": 32.828056,
  "longitude": 131.346944,
  "elevation_m": 1756,
  "prefecture": "大分県/宮崎県",
  "mountain_type": "",
  "priority": 100
 },
 {
  "id": 356,
  "source": "gsi_1003",
  "source_id": "0069",
  "name": "芽室岳",
  "name_kana": "めむろだけ",
  "latitude": 42.868889,
  "longitude": 142.785278,
  "elevation_m": 1754,
  "prefecture": "北海道",
  "mountain_type": "",
  "priority": 100
 },
 {
  "id": 357,
  "source": "gsi_1003",
  "source_id": "0078",
  "name": "イドンナップ岳",
  "name_kana": "いどんなっぷだけ",
  "latitude": 42.630278,
  "longitude": 142.648611,
  "elevation_m": 1752,
  "prefecture": "北海道",
  "mountain_type": "",
  "priority": 100
 },
 {
  "id": 358,
  "source": "gsi_1003",
  "source_id": "0969",
  "name": "くじゅう連山",
  "name_kana": "くじゅうれんざん",
  "latitude": 33.103889,
  "longitude": 131.246389,
  "elevation_m": 1744,
  "prefecture": "大分県",
  "mountain_type": "",
  "priority": 100
 },
 {
  "id": 359,
  "source": "gsi_1003",
  "source_id": "1007",
  "name": "国見岳",
  "name_kana": "くにみだけ",
  "latitude": 32.547222,
  "longitude": 131.018333,
  "elevation_m": 1739,
  "prefecture": "熊本県/宮崎県",
  "mountain_type": "",
  "priority": 100
 },
 {
  "id": 360,
  "source": "gsi_1003",
  "source_id": "0081",
  "name": "ペテガリ岳",
  "name_kana": "ぺてがりだけ",
  "latitude": 42.499444,
  "longitude": 142.871111,
  "elevation_m": 1736,
  "prefecture": "北海道",
  "mountain_type": "",
  "priority": 100
 },
 {
  "id": 361,
  "source": "gsi_1003",
  "source_id": "0679",
  "name": "三方岩岳",
  "name_kana": "さんぽういわだけ",
  "latitude": 36.258056,
  "longitude": 136.844444,
  "elevation_m": 1736,
  "prefecture": "石川県/岐阜県",
  "mountain_type": "",
  "priority": 100
 },
 {
  "id": 362,
  "source": "gsi_1003",
  "source_id": "0394",
  "name": "節刀ヶ岳",
  "name_kana": "せっとうがたけ",
  "latitude": 35.528611,
  "longitude": 138.683333,
  "elevation_m": 1736,
  "prefecture": "山梨県",
  "mountain_type": "",
  "priority": 100
 },
 {
  "id": 363,
  "source": "gsi_1003",
  "source_id": "0831",
  "name": "大山",
  "name_kana": "だいせん",
  "latitude": 35.371111,
  "longitude": 133.546111,
  "elevation_m": 1729,
  "prefecture": "鳥取県",
  "mountain_type": "",
  "priority": 100
 },
 {
  "id": 364,
  "source": "gsi_1003",
  "source_id": "0224",
  "name": "箕輪山",
  "name_kana": "みのわやま",
  "latitude": 37.647222,
  "longitude": 140.280833,
  "elevation_m": 1728,
  "prefecture": "福島県",
  "mountain_type": "",
  "priority": 100
 },
 {
  "id": 365,
  "source": "gsi_1003",
  "source_id": "0663",
  "name": "人形山",
  "name_kana": "にんぎょうやま",
  "latitude": 36.348889,
  "longitude": 136.939722,
  "elevation_m": 1726,
  "prefecture": "岐阜県/富山県",
  "mountain_type": "",
  "priority": 100
 },
 {
  "id": 366,
  "source": "gsi_1003",
  "source_id": "0644",
  "name": "十枚山",
  "name_kana": "じゅうまいざん",
  "latitude": 35.253611,
  "longitude": 138.378056,
  "elevation_m": 1726,
  "prefecture": "静岡県/山梨県",
  "mountain_type": "",
  "priority": 100
 },
 {
  "id": 367,
  "source": "gsi_1003",
  "source_id": "0064",
  "name": "芦別岳",
  "name_kana": "あしべつだけ",
  "latitude": 43.235833,
  "longitude": 142.283611,
  "elevation_m": 1726,
  "prefecture": "北海道",
  "mountain_type": "",
  "priority": 100
 },
 {
  "id": 368,
  "source": "gsi_1003",
  "source_id": "0344",
  "name": "両神山",
  "name_kana": "りょうかみさん",
  "latitude": 36.023333,
  "longitude": 138.841389,
  "elevation_m": 1723,
  "prefecture": "埼玉県",
  "mountain_type": "",
  "priority": 100
 },
 {
  "id": 369,
  "source": "gsi_1003",
  "source_id": "0017",
  "name": "利尻山（利尻富士）",
  "name_kana": "りしりざん（りしりふじ）",
  "latitude": 45.178611,
  "longitude": 141.241944,
  "elevation_m": 1721,
  "prefecture": "北海道",
  "mountain_type": "",
  "priority": 100
 },
 {
  "id": 370,
  "source": "gsi_1003",
  "source_id": "1010",
  "name": "市房山",
  "name_kana": "いちふさやま",
  "latitude": 32.311667,
  "longitude": 131.101111,
  "elevation_m": 1721,
  "prefecture": "熊本県/宮崎県",
  "mountain_type": "",
  "priority": 100
 },
 {
  "id": 371,
  "source": "gsi_1003",
  "source_id": "0311",
  "name": "朝日岳",
  "name_kana": "あさひだけ",
  "latitude": 36.859722,
  "longitude": 138.967222,
  "elevation_m": 1720,
  "prefecture": "群馬県",
  "mountain_type": "",
  "priority": 100
 },
 {
  "id": 372,
  "source": "gsi_1003",
  "source_id": "0753",
  "name": "山上ヶ岳",
  "name_kana": "さんじょうがたけ",
  "latitude": 34.2525,
  "longitude": 135.941111,
  "elevation_m": 1719,
  "prefecture": "奈良県",
  "mountain_type": "",
  "priority": 100
 },
 {
  "id": 373,
  "source": "gsi_1003",
  "source_id": "0361",
  "name": "酉谷山",
  "name_kana": "とりだにやま",
  "latitude": 35.897222,
  "longitude": 139.010278,
  "elevation_m": 1718,
  "prefecture": "埼玉県/東京都",
  "mountain_type": "",
  "priority": 100
 },
 {
  "id": 374,
  "source": "gsi_1003",
  "source_id": "0366",
  "name": "鶏冠山（黒川山）",
  "name_kana": "けいかんやま（くろかわやま）",
  "latitude": 35.788611,
  "longitude": 138.835833,
  "elevation_m": 1716,
  "prefecture": "山梨県",
  "mountain_type": "",
  "priority": 100
 },
 {
  "id": 375,
  "source": "gsi_1003",
  "source_id": "0907",
  "name": "塔丸",
  "name_kana": "とうのまる",
  "latitude": 33.866944,
  "longitude": 134.039167,
  "elevation_m": 1713,
  "prefecture": "徳島県",
  "mountain_type": "",
  "priority": 100
 },
 {
  "id": 376,
  "source": "gsi_1003",
  "source_id": "0355",
  "name": "小楢山",
  "name_kana": "こならやま",
  "latitude": 35.781667,
  "longitude": 138.664167,
  "elevation_m": 1713,
  "prefecture": "山梨県",
  "mountain_type": "",
  "priority": 100
 },
 {
  "id": 377,
  "source": "gsi_1003",
  "source_id": "0906",
  "name": "剣山",
  "name_kana": "つるぎさん",
  "latitude": 33.874167,
  "longitude": 134.09,
  "elevation_m": 1712,
  "prefecture": "徳島県",
  "mountain_type": "",
  "priority": 100
 },
 {
  "id": 378,
  "source": "gsi_1003",
  "source_id": "0687",
  "name": "大日ヶ岳",
  "name_kana": "だいにちがたけ",
  "latitude": 36.001389,
  "longitude": 136.837778,
  "elevation_m": 1709,
  "prefecture": "岐阜県",
  "mountain_type": "",
  "priority": 100
 },
 {
  "id": 379,
  "source": "gsi_1003",
  "source_id": "0225",
  "name": "安達太良山",
  "name_kana": "あだたらやま",
  "latitude": 37.633056,
  "longitude": 140.283056,
  "elevation_m": 1709,
  "prefecture": "福島県",
  "mountain_type": "",
  "priority": 100
 },
 {
  "id": 380,
  "source": "gsi_1003",
  "source_id": "0914",
  "name": "石立山",
  "name_kana": "いしたてざん",
  "latitude": 33.784722,
  "longitude": 134.055,
  "elevation_m": 1708,
  "prefecture": "徳島県/高知県",
  "mountain_type": "",
  "priority": 100
 },
 {
  "id": 381,
  "source": "gsi_1003",
  "source_id": "0223",
  "name": "東吾妻山",
  "name_kana": "ひがしあづまやま",
  "latitude": 37.722222,
  "longitude": 140.263611,
  "elevation_m": 1707,
  "prefecture": "福島県",
  "mountain_type": "",
  "priority": 100
 },
 {
  "id": 382,
  "source": "gsi_1003",
  "source_id": "0924",
  "name": "東赤石山",
  "name_kana": "ひがしあかいしやま",
  "latitude": 33.875,
  "longitude": 133.375,
  "elevation_m": 1706,
  "prefecture": "愛媛県",
  "mountain_type": "",
  "priority": 100
 },
 {
  "id": 383,
  "source": "gsi_1003",
  "source_id": "0214",
  "name": "蔵王山",
  "name_kana": "ざおうざん（ざおうさん）",
  "latitude": 38.075556,
  "longitude": 140.478889,
  "elevation_m": 1705,
  "prefecture": "宮城県",
  "mountain_type": "",
  "priority": 100
 },
 {
  "id": 384,
  "source": "gsi_1003",
  "source_id": "0356",
  "name": "茅ヶ岳",
  "name_kana": "かやがたけ",
  "latitude": 35.795,
  "longitude": 138.513889,
  "elevation_m": 1704,
  "prefecture": "山梨県",
  "mountain_type": "",
  "priority": 100
 },
 {
  "id": 385,
  "source": "gsi_1003",
  "source_id": "0226",
  "name": "安達太良山",
  "name_kana": "あだたらやま",
  "latitude": 37.621111,
  "longitude": 140.287778,
  "elevation_m": 1700,
  "prefecture": "福島県",
  "mountain_type": "",
  "priority": 100
 },
 {
  "id": 386,
  "source": "gsi_1003",
  "source_id": "1019",
  "name": "霧島山",
  "name_kana": "きりしまやま",
  "latitude": 31.934167,
  "longitude": 130.861667,
  "elevation_m": 1700,
  "prefecture": "宮崎県/鹿児島県",
  "mountain_type": "",
  "priority": 100
 },
 {
  "id": 387,
  "source": "gsi_1003",
  "source_id": "0752",
  "name": "大台ヶ原山",
  "name_kana": "おおだいがはらざん",
  "latitude": 34.185278,
  "longitude": 136.109167,
  "elevation_m": 1695,
  "prefecture": "奈良県/三重県",
  "mountain_type": "",
  "priority": 100
 },
 {
  "id": 388,
  "source": "gsi_1003",
  "source_id": "0685",
  "name": "願教寺山",
  "name_kana": "がんきょうじやま",
  "latitude": 36.056944,
  "longitude": 136.739722,
  "elevation_m": 1691,
  "prefecture": "福井県/岐阜県",
  "mountain_type": "",
  "priority": 100
 },
 {
  "id": 389,
  "source": "gsi_1003",
  "source_id": "1006",
  "name": "向坂山",
  "name_kana": "むこうざかやま",
  "latitude": 32.579722,
  "longitude": 131.105,
  "elevation_m": 1685,
  "prefecture": "熊本県/宮崎県",
  "mountain_type": "",
  "priority": 100
 },
 {
  "id": 390,
  "source": "gsi_1003",
  "source_id": "0389",
  "name": "御正体山",
  "name_kana": "みしょうたいやま",
  "latitude": 35.486944,
  "longitude": 138.931667,
  "elevation_m": 1681,
  "prefecture": "山梨県",
  "mountain_type": "",
  "priority": 100
 },
 {
  "id": 391,
  "source": "gsi_1003",
  "source_id": "0607",
  "name": "戸倉山（伊那富士）",
  "name_kana": "とくらやま（いなふじ）",
  "latitude": 35.745,
  "longitude": 138.051944,
  "elevation_m": 1681,
  "prefecture": "長野県",
  "mountain_type": "",
  "priority": 100
 },
 {
  "id": 392,
  "source": "gsi_1003",
  "source_id": "0571",
  "name": "南木曽岳",
  "name_kana": "なぎそだけ",
  "latitude": 35.5925,
  "longitude": 137.644167,
  "elevation_m": 1679,
  "prefecture": "長野県",
  "mountain_type": "",
  "priority": 100
 },
 {
  "id": 393,
  "source": "gsi_1003",
  "source_id": "0279",
  "name": "赤城山",
  "name_kana": "あかぎさん",
  "latitude": 36.541111,
  "longitude": 139.177222,
  "elevation_m": 1674,
  "prefecture": "群馬県",
  "mountain_type": "",
  "priority": 100
 },
 {
  "id": 394,
  "source": "gsi_1003",
  "source_id": "0686",
  "name": "野伏ヶ岳",
  "name_kana": "のぶせがだけ",
  "latitude": 36.012778,
  "longitude": 136.7325,
  "elevation_m": 1674,
  "prefecture": "岐阜県/福井県",
  "mountain_type": "",
  "priority": 100
 },
 {
  "id": 395,
  "source": "gsi_1003",
  "source_id": "0385",
  "name": "丹沢山",
  "name_kana": "たんざわさん",
  "latitude": 35.486389,
  "longitude": 139.138889,
  "elevation_m": 1673,
  "prefecture": "神奈川県",
  "mountain_type": "",
  "priority": 100
 },
 {
  "id": 396,
  "source": "gsi_1003",
  "source_id": "0670",
  "name": "鷲ヶ岳",
  "name_kana": "わしがたけ",
  "latitude": 35.940278,
  "longitude": 136.971389,
  "elevation_m": 1671,
  "prefecture": "岐阜県",
  "mountain_type": "",
  "priority": 100
 },
 {
  "id": 397,
  "source": "gsi_1003",
  "source_id": "0066",
  "name": "夕張岳",
  "name_kana": "ゆうばりだけ",
  "latitude": 43.099722,
  "longitude": 142.251111,
  "elevation_m": 1668,
  "prefecture": "北海道",
  "mountain_type": "",
  "priority": 100
 },
 {
  "id": 398,
  "source": "gsi_1003",
  "source_id": "0004",
  "name": "羅臼岳",
  "name_kana": "らうすだけ",
  "latitude": 44.075833,
  "longitude": 145.122222,
  "elevation_m": 1661,
  "prefecture": "北海道",
  "mountain_type": "",
  "priority": 100
 },
 {
  "id": 399,
  "source": "gsi_1003",
  "source_id": "0336",
  "name": "鼻曲山",
  "name_kana": "はなまがりやま",
  "latitude": 36.410833,
  "longitude": 138.645556,
  "elevation_m": 1655,
  "prefecture": "群馬県",
  "mountain_type": "",
  "priority": 100
 },
 {
  "id": 400,
  "source": "gsi_1003",
  "source_id": "0629",
  "name": "熊伏山",
  "name_kana": "くまぶしやま",
  "latitude": 35.263333,
  "longitude": 137.895,
  "elevation_m": 1654,
  "prefecture": "長野県",
  "mountain_type": "",
  "priority": 100
 },
 {
  "id": 401,
  "source": "gsi_1003",
  "source_id": "0574",
  "name": "守屋山",
  "name_kana": "もりやさん",
  "latitude": 35.9675,
  "longitude": 138.093333,
  "elevation_m": 1651,
  "prefecture": "長野県",
  "mountain_type": "",
  "priority": 100
 },